PROGRAMA,CODIGO_SNIP,CODIGO_UNIFICADO,NOMBRE_PROYECTO,UNIDAD_EJECUTORA,DEPARTAMENTO,PROVINCIA,DISTRITO,UBIGEO,BENEFICIARIOS,COSTO_TOTAL_INVERSION,MODALIDAD_FINANCIAMIENTO,ETAPA,ESTADO,FECHA_INICIO,FECHA_FIN,ESTADO_PIP_MEF,LATITUD,LONGITUD
PNSR,344418,2305673,"INSTALACION DE LOS SERVICIOS DE AGUA POTABLE Y SANEAMIENTO RURAL EN LOS SECTORES DE NUEVA CALA CALA, ASPAEX, ASPAEX-I Y ASPAEX-III (LOS CARIBEÑOS), CENTRO POBLADO DE YACANGO, DISTRITO DE TORATA - MARISCAL NIETO - MOQUEGUA",PROGRAMA NACIONAL DE SANEAMIENTO RURAL,MOQUEGUA,MARISCAL NIETO,TORATA,180106,520,9312007.04,OBRAS POR IMPUESTO,OBRA,CONCLUIDO,2022-04-06,2023-02-22,ACTIVO,-16.942979999999977,-70.67124999999999
PNSR,350013,2312883,"MEJORAMIENTO DEL SISTEMA DE SANEAMIENTO EN LA COMUNIDAD DE HUILLCARPAY, DISTRITO DE SAN SEBASTIAN - CUSCO - CUSCO",PROGRAMA NACIONAL DE SANEAMIENTO RURAL,CUSCO,CUSCO,SAN SEBASTIAN,80105,367,3842416.7,OBRAS POR IMPUESTO,OBRA,CONCLUIDO,2022-05-10,2022-11-22,ACTIVO,-13.523489999999981,-71.93059999999997
PNSR,376847,2337923,"CREACION DE UNIDADES BÁSICAS DE SANEAMIENTO EN EL CASERÍO LA CUADRATURA, DISTRITO DE HUALGAYOC - HUALGAYOC - CAJAMARCA",PROGRAMA NACIONAL DE SANEAMIENTO RURAL,CAJAMARCA,HUALGAYOC,HUALGAYOC,60703,672,3203961.1,OBRAS POR IMPUESTO,OBRA,CONCLUIDO,2022-09-29,2023-04-25,ACTIVO,-6.709626592999939,-78.54598142699996
PNSR,2497437,2497437,MEJORAMIENTO Y AMPLIACION DEL SERVICIO DE AGUA POTABLE Y SANEAMIENTO DEL CENTRO POBLADO CONDORCOCHA DEL DISTRITO DE LA UNION - PROVINCIA DE TARMA - DEPARTAMENTO DE JUNIN,PROGRAMA NACIONAL DE SANEAMIENTO RURAL,JUNÍN,TARMA,LA UNION,120705,1487,7593649.94,OBRAS POR IMPUESTO,OBRA,EN EJECUCIÓN,2023-06-30,2023-09-23,ACTIVO,-5.396789999999953,-80.74060999999995
PNSR,299528,2202459,"INSTALACION DE LOS SERVICIOS DE AGUA POTABLE, DISPOSICIÓN SANITARIA DE EXCRETAS Y DE AGUAS GRISES EN LA COMUNIDAD NATIVA DE EPEMIMU, DISTRITO DE IMAZA, PROVINCIA DE BAGUA, DEPARTAMENTO DE AMAZONAS",PROGRAMA NACIONAL DE SANEAMIENTO RURAL,AMAZONAS,BAGUA,IMAZA,10205,325,1893552.64,NÚCLEO EJECUTOR,OBRA,POST EJECUCIÓN,2015-08-19,2016-01-30,ACTIVO,-4.930039999999963,-78.22958999999997
PNSR,299634,2235422,"MEJORAMIENTO Y AMPLIACION DEL SERVICIO DE AGUA POTABLE E INSTALACIÓN DE LA DISPOSICION SANITARIA DE EXCRETAS Y DE AGUAS GRISES EN LA COMUNIDAD NATIVA DE WAWAS, DISTRITO DE IMAZA, PROVINCIA DE BAGUA, DEPARTAMENTO DE AMAZONAS",PROGRAMA NACIONAL DE SANEAMIENTO RURAL,AMAZONAS,BAGUA,IMAZA,10205,427,2338323.94,NÚCLEO EJECUTOR,OBRA,POST EJECUCIÓN,2015-07-17,2016-05-26,ACTIVO,-4.930039999999963,-78.22958999999997
PNSR,308260,2305484,"MEJORAMIENTO Y AMPLIACIÓN DEL SERVICIO DE AGUA POTABLE Y SANEAMIENTO DEL CENTRO POBLADO DE 7 DE JUNIO, DISTRITO DE JEPELACIO, PROVINCIA DE MOYOBAMBA, DEPARTAMENTO DE SAN MARTÍN",PROGRAMA NACIONAL DE SANEAMIENTO RURAL,SAN MARTIN,MOYOBAMBA,JEPELACIO,220104,311,1811849.76,NÚCLEO EJECUTOR,OBRA,POST EJECUCIÓN,2016-10-04,2019-04-01,ACTIVO,-6.10830999999996,-76.91625999999997
PNSR,303322,2293850,"MEJORAMIENTO Y AMPLIACION DEL SERVICIO DE AGUA POTABLE Y SANEAMIENTO DEL CENTRO POBLADO DE OCHAME, DISTRITO DE JEPELACIO, PROVINCIA DE MOYOBAMBA, DEPARTAMENTO DE SAN MARTIN",PROGRAMA NACIONAL DE SANEAMIENTO RURAL,SAN MARTIN,MOYOBAMBA,JEPELACIO,220104,260,2446000.93,NÚCLEO EJECUTOR,OBRA,POST EJECUCIÓN,2017-04-01,2020-02-29,ACTIVO,-6.10830999999996,-76.91625999999997
PNSR,309623,2307770,"MEJORAMIENTO Y AMPLIACIÓN  DEL SERVICIO DE AGUA POTABLE Y SANEAMIENTO EN EL CENTRO POBLADO LA CRUZ DEL ALTO MAYO, DISTRITO DE MOYOBAMBA, PROVINCIA DE MOYOBAMBA, DEPARTAMENTO DE SAN MARTÍN",PROGRAMA NACIONAL DE SANEAMIENTO RURAL,SAN MARTIN,MOYOBAMBA,MOYOBAMBA,220101,300,1986271.81,NÚCLEO EJECUTOR,OBRA,POST EJECUCIÓN,2017-04-01,2019-07-31,ACTIVO,-6.032709999999952,-76.97229999999996
PNSR,309763,2304268,"MEJORAMIENTO Y AMPLIACIÓN  DEL SERVICIO DE AGUA POTABLE Y SANEAMIENTO EN EL CENTRO POBLADO EL IMPERIO DE CACHIYACU, DISTRITO DE MOYOBAMBA, PROVINCIA DE MOYOBAMBA, DEPARTAMENTO DE SAN MARTÍN",PROGRAMA NACIONAL DE SANEAMIENTO RURAL,SAN MARTIN,MOYOBAMBA,MOYOBAMBA,220101,252,1984743.44,NÚCLEO EJECUTOR,OBRA,POST EJECUCIÓN,2016-10-04,2018-08-30,ACTIVO,-6.032709999999952,-76.97229999999996
PNSR,303263,2269263,"MEJORAMIENTO Y AMPLIACION DEL SERVICIO DE AGUA POTABLE Y SANEAMIENTO EN EL CENTRO POBLADO DE ALTO JERILLO, DISTRITO JEPELACIO, PROVINCIA DE MOYOBAMBA, DEPARTAMENTO DE SAN MARTIN",PROGRAMA NACIONAL DE SANEAMIENTO RURAL,SAN MARTIN,MOYOBAMBA,JEPELACIO,220104,227,1960302.18,NÚCLEO EJECUTOR,OBRA,POST EJECUCIÓN,2016-10-04,2017-09-30,ACTIVO,-6.10830999999996,-76.91625999999997
PNSR,303118,2282899,"MEJORAMIENTO Y AMPLIACION DEL SERVICIO DE AGUA POTABLE Y SANEAMIENTO DEL CENTRO POBLADO DE CAMPO ALEGRE, DISTRITO DE MOYOBAMBA, PROVINCIA DE MOYOBAMBA, DEPARTAMENTO DE SAN MARTÍN",PROGRAMA NACIONAL DE SANEAMIENTO RURAL,SAN MARTIN,MOYOBAMBA,MOYOBAMBA,220101,207,1451784.56,NÚCLEO EJECUTOR,OBRA,POST EJECUCIÓN,2016-10-04,2017-08-28,ACTIVO,-6.032709999999952,-76.97229999999996
PNSR,303317,2282888,"MEJORAMIENTO Y AMPLIACION DEL SERVICIO DE AGUA POTABLE Y SANEAMIENTO EN EL CENTRO POBLADO DE PLAYA HERMOSA, DISTRITO DE MOYOBAMBA, PROVINCIA DE MOYOBAMBA, DEPARTAMENTO DE SAN MARTÍN",PROGRAMA NACIONAL DE SANEAMIENTO RURAL,SAN MARTIN,MOYOBAMBA,MOYOBAMBA,220101,410,2526714.99,NÚCLEO EJECUTOR,OBRA,POST EJECUCIÓN,2016-10-04,2017-11-24,ACTIVO,-6.032709999999952,-76.97229999999996
PNSR,308228,2313403,"MEJORAMIENTO Y AMPLIACIÓN DEL SERVICIO DE AGUA POTABLE Y SANEAMIENTO DEL CENTRO POBLADO DE CARACHUPAYACU, DISTRITO DE JEPELACIO, PROVINCIA DE MOYOBAMBA, DEPARTAMENTO DE SAN MARTÍN",PROGRAMA NACIONAL DE SANEAMIENTO RURAL,SAN MARTIN,MOYOBAMBA,JEPELACIO,220104,279,2036679.77,NÚCLEO EJECUTOR,OBRA,TRANSFERENCIA,2017-04-01,2018-05-24,ACTIVO,-6.10830999999996,-76.91625999999997
PNSR,309879,2310682,"MEJORAMIENTO Y AMPLIACIÓN DEL SERVICIO DE AGUA POTABLE Y SANEAMIENTO EN EL CENTRO POBLADO ALAN GARCÍA, DISTRITO DE MOYOBAMBA, PROVINCIA DE MOYOBAMBA, DEPARTAMENTO DE SAN MARTÍN",PROGRAMA NACIONAL DE SANEAMIENTO RURAL,SAN MARTIN,MOYOBAMBA,MOYOBAMBA,220101,263,2366485.61,NÚCLEO EJECUTOR,OBRA,POST EJECUCIÓN,2017-04-01,2018-12-20,ACTIVO,-6.032709999999952,-76.97229999999996
PNSR,303261,2302779,"INSTALACION DEL SERVICIO DE AGUA POTABLE Y SANEAMIENTO EN EL CENTRO POBLADO DE GANIMIDES, DISTRITO DE MOYOBAMBA, PROVINCIA DE MOYOBAMBA, DEPARTAMENTO DE SAN MARTIN",PROGRAMA NACIONAL DE SANEAMIENTO RURAL,SAN MARTIN,MOYOBAMBA,MOYOBAMBA,220101,323,2504658.17,NÚCLEO EJECUTOR,OBRA,POST EJECUCIÓN,2017-05-15,2019-07-22,ACTIVO,-6.032709999999952,-76.97229999999996
PNSR,303111,2269268,"MEJORAMIENTO Y AMPLIACION DEL SERVICIO DE AGUA POTABLE Y SANEAMIENTO EN EL CENTRO POBLADO DE ALTO RIOJA, DISTRITO DE JEPELACIO, PROVINCIA DE MOYOBAMBA, DEPARTAMENTO DE SAN MARTÍN",PROGRAMA NACIONAL DE SANEAMIENTO RURAL,SAN MARTIN,MOYOBAMBA,JEPELACIO,220104,268,1840930.21,NÚCLEO EJECUTOR,OBRA,POST EJECUCIÓN,2016-10-04,2017-09-29,ACTIVO,-6.10830999999996,-76.91625999999997
PNSR,303123,2269264,"MEJORAMIENTO Y AMPLIACION DEL SERVICIO DE AGUA POTABLE Y SANEAMIENTO EN EL CENTRO POBLADO DE BARRANQUITA, DISTRITO DE JEPELACIO, PROVINCIA DE MOYOBAMBA, DEPARTAMENTO DE SAN MARTÍN",PROGRAMA NACIONAL DE SANEAMIENTO RURAL,SAN MARTIN,MOYOBAMBA,JEPELACIO,220104,295,2185034.95,NÚCLEO EJECUTOR,OBRA,POST EJECUCIÓN,2016-10-04,2019-07-31,ACTIVO,-6.10830999999996,-76.91625999999997
PNSR,303310,2269267,"INSTALACION DEL SERVICIO DE AGUA POTABLE Y SANEAMIENTO DEL CENTRO POBLADO DE EL LAUREL, DISTRITO DE JEPELACIO, PROVINCIA DE MOYOBAMBA, DEPARTAMENTO DE SAN MARTIN",PROGRAMA NACIONAL DE SANEAMIENTO RURAL,SAN MARTIN,MOYOBAMBA,JEPELACIO,220104,221,2133355.52,NÚCLEO EJECUTOR,OBRA,POST EJECUCIÓN,2016-10-04,2018-09-10,ACTIVO,-6.10830999999996,-76.91625999999997
PNSR,309197,2295438,"INSTALACION DEL SERVICIO DE AGUA POTABLE Y SANEAMIENTO EN EL CENTRO POBLADO DE EL TRIUNFO, DISTRITO DE JEPELACIO, PROVINCIA DE MOYOBAMBA, DEPARTAMENTO DE SAN MARTÍN",PROGRAMA NACIONAL DE SANEAMIENTO RURAL,SAN MARTIN,MOYOBAMBA,JEPELACIO,220104,292,1855646.67,NÚCLEO EJECUTOR,OBRA,POST EJECUCIÓN,2016-10-04,2017-05-04,ACTIVO,-6.10830999999996,-76.91625999999997
PNSR,313816,2254974,"MEJORAMIENTO Y AMPLIACIÓN DEL SERVICIO DE AGUA POTABLE Y SANEAMIENTO EN EL CENTRO POBLADO DE LA PRIMAVERA, DISTRITO DE NUEVA CAJAMARCA, PROVINCIA DE RIOJA, DEPARTAMENTO DE SAN MARTÍN",PROGRAMA NACIONAL DE SANEAMIENTO RURAL,SAN MARTIN,RIOJA,NUEVA CAJAMARCA,220804,377,2602216.03,NÚCLEO EJECUTOR,OBRA,POST EJECUCIÓN,2017-04-03,2021-09-30,ACTIVO,-5.8952299999999696,-77.33035999999998
PNSR,303112,2269260,"MEJORAMIENTO Y AMPLIACION DEL SERVICIO DE AGUA POTABLE Y SANEAMIENTO EN EL CENTRO POBLADO DE BARBASCAL, DISTRITO DE JEPELACIO, PROVINCIA DE MOYOBAMBA, DEPARTAMENTO DE SAN MARTÍN",PROGRAMA NACIONAL DE SANEAMIENTO RURAL,SAN MARTIN,MOYOBAMBA,JEPELACIO,220104,207,1567529.37,NÚCLEO EJECUTOR,OBRA,POST EJECUCIÓN,2016-10-04,2019-07-05,ACTIVO,-6.10830999999996,-76.91625999999997
PNSR,303120,2274192,"MEJORAMIENTO Y AMPLIACION DEL SERVICIO DE AGUA POTABLE Y SANEAMIENTO EN EL CENTRO POBLADO DE PEDRO PASCASIO NORIEGA, DISTRITO MOYOBAMBA, PROVINCIA MOYOBAMBA, DEPARTAMENTO DE SAN MARTIN",PROGRAMA NACIONAL DE SANEAMIENTO RURAL,SAN MARTIN,MOYOBAMBA,MOYOBAMBA,220101,288,1764676.87,NÚCLEO EJECUTOR,OBRA,POST EJECUCIÓN,2016-10-04,2017-05-03,ACTIVO,-6.032709999999952,-76.97229999999996
PNSR,303320,2286903,"MEJORAMIENTO Y AMPLIACION DEL SERVICIO DE AGUA POTABLE Y SANEAMIENTO EN EL CENTRO POBLADO DE POTRERILLO, DISTRITO DE JEPELACIO, PROVINCIA DE MOYOBAMBA, DEPARTAMENTO DE SAN MARTIN",PROGRAMA NACIONAL DE SANEAMIENTO RURAL,SAN MARTIN,MOYOBAMBA,JEPELACIO,220104,347,1746264.97,NÚCLEO EJECUTOR,OBRA,POST EJECUCIÓN,2016-10-04,2017-06-23,ACTIVO,-6.10830999999996,-76.91625999999997
PNSR,309766,2307726,"MEJORAMIENTO Y AMPLIACIÓN  DEL SERVICIO DE AGUA POTABLE Y SANEAMIENTO EN EL CENTRO POBLADO DE NUEVO EDEN, DISTRITO DE MOYOBAMBA, PROVINCIA DE MOYOBAMBA, DEPARTAMENTO DE SAN MARTÍN",PROGRAMA NACIONAL DE SANEAMIENTO RURAL,SAN MARTIN,MOYOBAMBA,MOYOBAMBA,220101,300,2226458.13,NÚCLEO EJECUTOR,OBRA,POST EJECUCIÓN,2017-04-03,2019-11-18,ACTIVO,-6.032709999999952,-76.97229999999996
PNSR,378396,2339543,"INSTALACIÓN DEL SERVICIO DE AGUA POTABLE Y SANEAMIENTO EN LA COMUNIDAD NATIVA DE LOMA LINDA , DISTRITO DE BALSAPUERTO, PROVINCIA DE ALTO AMAZONAS, DEPARTAMENTO DE LORETO",PROGRAMA NACIONAL DE SANEAMIENTO RURAL,LORETO,ALTO AMAZONAS,BALSAPUERTO,160202,203,2424139.61,NÚCLEO EJECUTOR,OBRA,PARALIZADA,2019-09-02,2023-09-23,ACTIVO,-5.817119999999932,-76.50426999999996
PNSR,309765,2302782,"MEJORAMIENTO Y AMPLIACIÓN  DEL SERVICIO DE AGUA POTABLE Y SANEAMIENTO EN EL CENTRO POBLADO EL COLCA, DISTRITO DE NUEVA CAJAMARCA, PROVINCIA DE RIOJA, DEPARTAMENTO DE SAN MARTÍN",PROGRAMA NACIONAL DE SANEAMIENTO RURAL,SAN MARTIN,RIOJA,NUEVA CAJAMARCA,220804,214,1739446.85,NÚCLEO EJECUTOR,OBRA,POST EJECUCIÓN,2016-11-07,2017-11-10,ACTIVO,-5.8952299999999696,-77.33035999999998
PNSR,309622,2303088,"MEJORAMIENTO Y AMPLIACIÓN  DEL SERVICIO DE AGUA POTABLE Y SANEAMIENTO EN EL CENTRO POBLADO DE ALFONSO UGARTE, DISTRITO DE JEPELACIO, PROVINCIA DE MOYOBAMBA, DEPARTAMENTO DE SAN MARTÍN",PROGRAMA NACIONAL DE SANEAMIENTO RURAL,SAN MARTIN,MOYOBAMBA,JEPELACIO,220104,224,1775812.59,NÚCLEO EJECUTOR,OBRA,POST EJECUCIÓN,2017-04-01,2018-05-07,ACTIVO,-6.10830999999996,-76.91625999999997
PNSR,303305,2293853,"MEJORAMIENTO Y AMPLIACION DEL SERVICIO DE AGUA POTABLE Y SANEAMIENTO DEL CENTRO POBLADO EMILIO SAN MARTIN, DISTRITO DE JEPELACIO, PROVINCIA DE MOYOBAMBA, DEPARTAMENTO DE SAN MARTIN",PROGRAMA NACIONAL DE SANEAMIENTO RURAL,SAN MARTIN,MOYOBAMBA,JEPELACIO,220104,205,1671463.35,NÚCLEO EJECUTOR,OBRA,POST EJECUCIÓN,2016-10-04,2017-10-19,ACTIVO,-6.10830999999996,-76.91625999999997
PNSR,309617,2305482,"MEJORAMIENTO Y AMPLIACIÓN  DEL SERVICIO DE AGUA POTABLE Y SANEAMIENTO EN EL CENTRO POBLADO NUEVO PIURA, DISTRITO DE MOYOBAMBA, PROVINCIA DE MOYOBAMBA, DEPARTAMENTO DE SAN MARTÍN",PROGRAMA NACIONAL DE SANEAMIENTO RURAL,SAN MARTIN,MOYOBAMBA,MOYOBAMBA,220101,224,2418289.1,NÚCLEO EJECUTOR,OBRA,POST EJECUCIÓN,2016-10-04,2017-07-27,ACTIVO,-6.032709999999952,-76.97229999999996
PNSR,309760,2295439,"MEJORAMIENTO Y AMPLIACIÓN  DEL SERVICIO DE AGUA POTABLE Y SANEAMIENTO EN EL CENTRO POBLADO DE NUEVO MOYOBAMBA, DISTRITO DE MOYOBAMBA, PROVINCIA DE MOYOBAMBA, DEPARTAMENTO DE SAN MARTÍN",PROGRAMA NACIONAL DE SANEAMIENTO RURAL,SAN MARTIN,MOYOBAMBA,MOYOBAMBA,220101,211,1510054.44,NÚCLEO EJECUTOR,OBRA,POST EJECUCIÓN,2016-10-04,2017-06-21,ACTIVO,-6.032709999999952,-76.97229999999996
PNSR,299036,2260572,"MEJORAMIENTO Y AMPLIACION DEL SERVICIO DE AGUA POTABLE Y SANEAMIENTO BASICO DEL CENTRO POBLADO DE CCACTUS URCCO , DISTRITO DE VINCHOS - HUAMANGA - AYACUCHO",PROGRAMA NACIONAL DE SANEAMIENTO RURAL,AYACUCHO,HUAMANGA,VINCHOS,50114,548,2372085.64,NÚCLEO EJECUTOR,OBRA,CERRADO,2019-08-05,2020-08-25,CERRADO,-13.328679999999963,-74.35216999999994
PNSR,295410,2261539,"INSTALACION DE LOS SERVICIOS DE AGUA POTABLE Y DISPOSICION SANITARIA DE EXCRETAS EN EL CENTRO POBLADO ALTO CAPIRUSHARI, DISTRITO DE MAZAMARI - SATIPO - JUNIN",PROGRAMA NACIONAL DE SANEAMIENTO RURAL,JUNIN,SATIPO,MAZAMARI,120604,203,2049815.55,NÚCLEO EJECUTOR,OBRA,CERRADO,2019-11-11,2021-01-10,CERRADO,-11.325359999999932,-74.52975999999995
PNSR,293341,2254845,"MEJORAMIENTO Y AMPLIACION DE LOS SERVICIOS DE AGUA POTABLE Y DISPOSICION SANITARIA DE EXCRETAS EN EL CENTRO POBLADO SANTA MARTHA, DISTRITO DE MAZAMARI - SATIPO - JUNIN",PROGRAMA NACIONAL DE SANEAMIENTO RURAL,JUNIN,SATIPO,MAZAMARI,120604,432,1960808.53,NÚCLEO EJECUTOR,OBRA,CERRADO,2019-12-02,2021-03-09,CERRADO,-11.325359999999932,-74.52975999999995
PNSR,291566,2235582,"MEJORAMIENTO Y AMPLIACIÓN DEL SERVICIO DE AGUA POTABLE Y DISPOSICIÓN SANITARIA DE EXCRETAS EN LA COMUNIDAD NATIVA DE ANAPATE, DISTRITO DE RÍO TAMBO, PROVINCIA DE SATIPO, DEPARTAMENTO DE JUNÍN",PROGRAMA NACIONAL DE SANEAMIENTO RURAL,JUNIN,SATIPO,RIO TAMBO,120608,392,2463102.97,NÚCLEO EJECUTOR,OBRA,CERRADO,2021-06-01,2021-11-26,CERRADO,-11.145289999999932,-74.22880999999995
PNSR,300527,2260362,"AMPLIACION Y MEJORAMIENTO DEL SERVICIO DE AGUA POTABLE E INSTALACION DEL SANEAMIENTO BASICO DE LA LOCALIDAD DE EL CONVENTO, DISTRITO DE LLAPA - SAN MIGUEL - CAJAMARCA",PROGRAMA NACIONAL DE SANEAMIENTO RURAL,CAJAMARCA,SAN MIGUEL,LLAPA,61107,229,2573289.51,NÚCLEO EJECUTOR,OBRA,POST EJECUCIÓN,2019-09-12,2020-12-23,ACTIVO,-6.891219999999976,-78.74142999999998
PNSR,289814,2266065,"MEJORAMIENTO Y AMPLIACION DEL SERVICIO DE AGUA POTABLE E INSTALACION DEL SERVICIO DE SANEAMIENTO EN EL CENTRO POBLADO SELVA VERDE, DISTRITO DE ARAMANGO - BAGUA - AMAZONAS",PROGRAMA NACIONAL DE SANEAMIENTO RURAL,AMAZONAS,BAGUA,ARAMANGO,10202,220,1591537.53,NÚCLEO EJECUTOR,OBRA,POST EJECUCIÓN,2019-09-04,2020-12-09,ACTIVO,-5.416459999999972,-78.43733999999995
PNSR,292598,2235656,"AMPLIACION Y MEJORAMIENTO DEL SERVICIO DE AGUA POTABLE Y SANEAMIENTO EN EL CENTRO POBLADO HEBRON, DISTRITO DE NIEVA, PROVINCIA DE CONDORCANQUI - AMAZONAS",PROGRAMA NACIONAL DE SANEAMIENTO RURAL,AMAZONAS,CONDORCANQUI,NIEVA,10401,217,1941678.84,NÚCLEO EJECUTOR,OBRA,TRANSFERENCIA,2019-11-07,2020-12-22,ACTIVO,-4.595339999999965,-77.86773999999997
PNSR,292308,2235550,"AMPLIACION Y MEJORAMIENTO DEL SERVICIO DE AGUA POTABLE E INSTALACION DEL SISTEMA DE SANEAMIENTO BASICO EN LA LOCALIDAD DE BAJO CELENDIN , DISTRITO DE PANGOA - SATIPO - JUNIN",PROGRAMA NACIONAL DE SANEAMIENTO RURAL,JUNIN,SATIPO,PANGOA,120606,311,1693013.18,NÚCLEO EJECUTOR,OBRA,CERRADO,2019-08-19,2020-03-12,CERRADO,-11.43148999999994,-74.48758999999995
PNSR,292352,2235254,"MEJORAMIENTO Y AMPLIACIÓN DEL SERVICIO DE AGUA POTABLE Y SANEAMIENTO BÁSICO EN EL CENTRO POBLADO VALLE HERMOSO, DISTRITO DE JEPELACIO, PROVINCIA DE MOYOBAMBA, DEPARTAMENTO DE SAN MARTÍN",PROGRAMA NACIONAL DE SANEAMIENTO RURAL,SAN MARTIN,MOYOBAMBA,JEPELACIO,220104,264,2571435.44,NÚCLEO EJECUTOR,OBRA,POST EJECUCIÓN,2019-12-10,2021-08-06,ACTIVO,-6.10830999999996,-76.91625999999997
PNSR,291531,2235731,"MEJORAMIENTO Y AMPLIACIÓN DEL SERVICIO DE AGUA POTABLE E INSTALACIÓN DEL SERVICIO DE DISPOSICIÓN SANITARIA DE EXCRETAS EN EL CENTRO POBLADO CENTRO HUAHUARI, DISTRITO DE RIO NEGRO - SATIPO - JUNÍN",PROGRAMA NACIONAL DE SANEAMIENTO RURAL,JUNIN,SATIPO,RIO NEGRO,120607,349,1906506.09,NÚCLEO EJECUTOR,OBRA,CERRADO,2019-08-15,2020-03-15,CERRADO,-11.100989999999967,-74.69651999999996
PNSR,292365,2235257,"INSTALACIÓN DEL SERVICIO DE AGUA POTABLE Y SANEAMIENTO BÁSICO EN EL CENTRO POBLADO SAN ANDRES, DISTRITO DE JEPELACIO - MOYOBAMBA - SAN MARTÍN",PROGRAMA NACIONAL DE SANEAMIENTO RURAL,SAN MARTIN,MOYOBAMBA,JEPELACIO,220104,255,2396787.16,NÚCLEO EJECUTOR,OBRA,POST EJECUCIÓN,2020-02-06,2021-03-30,ACTIVO,-6.10830999999996,-76.91625999999997
PNSR,294484,2286781,"MEJORAMIENTO Y AMPLIACIÓN DEL SERVICIO DE AGUA POTABLE E INSTALACIÓN DEL SERVICIO DE SANEAMIENTO EN EL CENTRO POBLADO EL TRIUNFO, DISTRITO DE LA PECA- BAGUA-AMAZONAS",PROGRAMA NACIONAL DE SANEAMIENTO RURAL,AMAZONAS,BAGUA,LA PECA,10206,287,2512458.69,NÚCLEO EJECUTOR,OBRA,POST EJECUCIÓN,2019-11-11,2020-12-19,ACTIVO,-5.608009999999979,-78.43291999999997
PNSR,291755,2200344,"INSTALACIÓN DEL SERVICIO DE DISPOSICIÓN SANITARIA DE EXCRETAS EN EL CASERIO SAN PEDRO DE LAGARTO, DISTRITO DE RAYMONDI, PROVINCIA DE ATALAYA, DEPARTAMENTO DE UCAYALI",PROGRAMA NACIONAL DE SANEAMIENTO RURAL,UCAYALI,ATALAYA,RAYMONDI,250201,257,1551047.69,NÚCLEO EJECUTOR,OBRA,CERRADO,2019-11-04,2021-02-13,CERRADO,-10.729669999999942,-73.75943999999998
PNSR,285504,2256363,"MEJORAMIENTO Y AMPLIACION DEL SERVICIO DE AGUA POTABLE Y SANEAMIENTO BASICO EN EL CASERIO DE CRUZ DE PIEDRA, DISTRITO DE HUARMACA - HUANCABAMBA - PIURA",PROGRAMA NACIONAL DE SANEAMIENTO RURAL,PIURA,HUANCABAMBA,HUARMACA,200304,292,2113947.73,NÚCLEO EJECUTOR,OBRA,CERRADO,2019-10-16,2021-03-01,CERRADO,-5.584619999999973,-79.52109999999999
PNSR,292708,2266328,"AMPLIACION Y MEJORAMIENTO DEL SERVICIO DE AGUA POTABLE E INSTALACION DEL SISTEMA DE SANEAMIENTO BASICO DE LA LOCALIDAD DE SHUMAYA , DISTRITO DE HUARANGO - SAN IGNACIO - CAJAMARCA",PROGRAMA NACIONAL DE SANEAMIENTO RURAL,CAJAMARCA,SAN IGNACIO,HUARANGO,60903,344,2493001.15,NÚCLEO EJECUTOR,OBRA,POST EJECUCIÓN,2019-12-09,2021-01-20,ACTIVO,-5.285869999999932,-78.80639999999994
PNSR,288653,2198259,"INSTALACION DEL SERVICIO DE AGUA POTABLE Y SANEAMIENTO EN EL CASERIO PAMPAS VERDES, DISTRITO DE CAMPO VERDE, PROVINCIA DE CORONEL PORTILLO, UCAYALI",PROGRAMA NACIONAL DE SANEAMIENTO RURAL,UCAYALI,CORONEL PORTILLO,CAMPOVERDE,250102,236,2230377.5,NÚCLEO EJECUTOR,OBRA,POST EJECUCIÓN,2019-10-15,2021-01-16,ACTIVO,-8.473279999999932,-74.80614999999995
PNSR,300384,2262313,"AMPLIACION Y MEJORAMIENTO DEL SERVICIO DE AGUA POTABLE E INSTALACION DEL SANEAMIENTO BASICO DE LA LOCALIDAD DE SURO ANTIVO, DISTRITO DE TUMBADEN - SAN PABLO - CAJAMARCA",PROGRAMA NACIONAL DE SANEAMIENTO RURAL,CAJAMARCA,SAN PABLO,TUMBADEN,61204,243,2425458.73,NÚCLEO EJECUTOR,OBRA,TRANSFERENCIA,2019-09-09,2020-12-23,ACTIVO,-7.041859999999929,-78.75481999999994
PNSR,288340,2235543,"AMPLIACION Y MEJORAMIENTO DE LOS SISTEMAS DE AGUA POTABLE Y SANEAMIENTO DEL CASERIO PENA BLANCA , DISTRITO DE CUMBA - UTCUBAMBA - AMAZONAS",PROGRAMA NACIONAL DE SANEAMIENTO RURAL,AMAZONAS,UTCUBAMBA,CUMBA,10703,212,2476955.9,NÚCLEO EJECUTOR,OBRA,CERRADO,2019-09-04,2020-10-08,CERRADO,-5.8956099999999765,-78.68562999999995
PNSR,284520,2235529,"MEJORAMIENTO Y AMPLIACION DEL SERVICIO DE AGUA POTABLE Y SANEAMIENTO BASICO EN EL CASERIO DE PIRGA, DISTRITO DE HUARMACA - HUANCABAMBA - PIURA",PROGRAMA NACIONAL DE SANEAMIENTO RURAL,PIURA,HUANCABAMBA,HUARMACA,200304,374,2245907.22,NÚCLEO EJECUTOR,OBRA,CERRADO,2019-09-23,2021-05-06,CERRADO,-5.584619999999973,-79.52109999999999
PNSR,284383,2195426,"MEJORAMIENTO Y AMPLIACION DEL SERVICIO DE AGUA POTABLE Y SANEAMIENTO BASICO EN EL CASERIO DE MONTE GRANDE ALTO, DISTRITO DE HUARMACA - HUANCABAMBA - PIURA",PROGRAMA NACIONAL DE SANEAMIENTO RURAL,PIURA,HUANCABAMBA,HUARMACA,200304,350,2373131.8,NÚCLEO EJECUTOR,OBRA,CERRADO,2019-10-24,2021-02-25,CERRADO,-5.584619999999973,-79.52109999999999
PNSR,293719,2260079,"MEJORAMIENTO Y AMPLIACIÓN DEL SERVICIO DE AGUA POTABLE E INSTALACIÓN DEL SERVICIO DE DISPOSICIÓN SANITARIA DE EXCRETAS EN EL CENTRO POBLADO RIO SANTA, DISTRITO DE RIO NEGRO – SATIPO – JUNÍN",PROGRAMA NACIONAL DE SANEAMIENTO RURAL,JUNIN,SATIPO,RIO NEGRO,120607,224,2525246.73,NÚCLEO EJECUTOR,OBRA,POST EJECUCIÓN,2019-11-04,2021-11-29,ACTIVO,-11.100989999999967,-74.69651999999996
PNSR,293337,2254844,"INSTALACION DE LOS SERVICIOS DE AGUA POTABLE Y DISPOSICION SANITARIA DE EXCRETAS EN EL CENTRO POBLADO SAN MIGUEL DE CUVIRIAKI, DISTRITO DE RIO NEGRO - SATIPO - JUNIN",PROGRAMA NACIONAL DE SANEAMIENTO RURAL,JUNIN,SATIPO,RIO NEGRO,120607,201,2329013.9,NÚCLEO EJECUTOR,OBRA,CERRADO,2019-11-01,2021-07-07,CERRADO,-11.100989999999967,-74.69651999999996
PNSR,292894,2200393,"MEJORAMIENTO Y AMPLIACION DEL SERVICIO DE AGUA POTABLE E INSTALACION DEL SERVICIO DE SANEAMIENTO EN EL CENTRO POBLADO PERLA DEL IMAZA , DISTRITO DE YAMBRASBAMBA - BONGARA - AMAZONAS",PROGRAMA NACIONAL DE SANEAMIENTO RURAL,AMAZONAS,BONGARA,YAMBRASBAMBA,10312,345,2559045.31,NÚCLEO EJECUTOR,OBRA,POST EJECUCIÓN,2019-11-06,2021-04-09,ACTIVO,-5.669499999999971,-77.76760999999993
PNSR,291617,2235732,"MEJORAMIENTO Y AMPLIACIÓN DEL SERVICIO DE AGUA POTABLE E INSTALACIÓN DEL SERVICIO DE DISPOSICIÓN SANITARIA DE EXCRETAS EN EL CENTRO POBLADO SAN SEBASTIAN, DISTRITO DE RIO NEGRO - PROVINCIA DE SATIPO - REGIÓN JUNÍN",PROGRAMA NACIONAL DE SANEAMIENTO RURAL,JUNIN,SATIPO,RIO NEGRO,120607,210,1892016.89,NÚCLEO EJECUTOR,OBRA,CERRADO,2019-11-11,2021-04-30,CERRADO,-11.100989999999967,-74.69651999999996
PNSR,299031,2264251,"MEJORAMIENTO Y AMPLIACION DEL SERVICIO DE AGUA POTABLE Y SANEAMIENTO BASICO DEL CENTRO POBLADO DE TAMBOCUCHO , DISTRITO DE SOCOS - HUAMANGA - AYACUCHO",PROGRAMA NACIONAL DE SANEAMIENTO RURAL,AYACUCHO,HUAMANGA,SOCOS,50112,307,1852057.46,NÚCLEO EJECUTOR,OBRA,CERRADO,2019-08-06,2020-08-31,CERRADO,-13.169149999999945,-74.30822999999998
PNSR,302276,2283850,"MEJORAMIENTO Y AMPLIACION DE LOS SERVICIOS DE AGUA POTABLE Y SANEAMIENTO DEL CENTRO POBLADO DE UMACHULLO , DISTRITO DE COASA - CARABAYA - PUNO",PROGRAMA NACIONAL DE SANEAMIENTO RURAL,PUNO,CARABAYA,COASA,210304,321,2198662.39,NÚCLEO EJECUTOR,OBRA,CERRADO,2021-04-07,2021-09-30,CERRADO,-13.98766999999998,-70.01652999999999
PNSR,291525,2235650,"MEJORAMIENTO Y AMPLIACION DEL SISTEMA DE AGUA POTABLE Y SANEAMIENTO BASICO EN EL CENTRO POBLADO SANTA ROSA , DISTRITO DE ALONSO DE ALVARADO - LAMAS - SAN MARTIN",PROGRAMA NACIONAL DE SANEAMIENTO RURAL,SAN MARTIN,LAMAS,ALONSO DE ALVARADO,220502,305,2232661.58,NÚCLEO EJECUTOR,OBRA,POST EJECUCIÓN,2021-04-17,2022-02-18,ACTIVO,-6.226689999999962,-76.81567999999999
PNSR,294039,2200395,"MEJORAMIENTO Y AMPLIACION DEL SERVICIO DE AGUA POTABLE Y DISPOSICION DE EXCRETAS DE LA LOCALIDAD SANTA ROSILLO DE UPAQUIHUA , DISTRITO DE BUENOS AIRES - PICOTA - SAN MARTIN",PROGRAMA NACIONAL DE SANEAMIENTO RURAL,SAN MARTIN,PICOTA,BUENOS AIRES,220702,251,2261410.41,NÚCLEO EJECUTOR,OBRA,CERRADO,2021-04-14,2021-11-25,CERRADO,-5.264029999999934,-79.96548999999999
PNSR,294020,2202167,"MEJORAMIENTO Y AMPLIACION DEL SERVICIO DE AGUA POTABLE Y DISPOSICION DE EXCRETAS DE LA LOCALIDAD SANTA ANA DEL RIO MAYO , DISTRITO DE ZAPATERO - LAMAS - SAN MARTIN",PROGRAMA NACIONAL DE SANEAMIENTO RURAL,SAN MARTIN,LAMAS,ZAPATERO,220511,266,2315387.46,NÚCLEO EJECUTOR,OBRA,TRANSFERENCIA,2021-04-16,2022-01-06,ACTIVO,-6.51470999999998,-76.48740999999995
PNSR,292988,2200850,"MEJORAMIENTO Y AMPLIACIÓN DEL SERVICIO DE AGUA POTABLE E INSTALACIÓN DEL SERVICIO DE SANEAMIENTO BÁSICO EN EL CENTRO POBLADO DE MACHUNGO , DISTRITO DE ALBERTO LEVEAU - SAN MARTIN - SAN MARTIN",PROGRAMA NACIONAL DE SANEAMIENTO RURAL,SAN MARTIN,SAN MARTIN,ALBERTO LEVEAU,220902,247,1786335.14,NÚCLEO EJECUTOR,OBRA,CERRADO,2021-04-19,2021-09-15,CERRADO,-6.719379999999944,-76.26896999999997
PNSR,292126,2202911,"AMPLIACION Y MEJORAMIENTO DEL SERVICIO DE AGUA POTABLE E INSTALACION DEL SISTEMA DE SANEAMIENTO BASICO EN LA LOCALIDAD DE SAN VICENTE DE CANETE , DISTRITO DE MAZAMARI - SATIPO - JUNIN",PROGRAMA NACIONAL DE SANEAMIENTO RURAL,JUNIN,SATIPO,MAZAMARI,120604,242,1944147.38,NÚCLEO EJECUTOR,OBRA,CERRADO,2021-03-01,2021-06-28,CERRADO,-11.325359999999932,-74.52975999999995
PNSR,293135,2251082,"AMPLIACION Y MEJORAMIENTO DEL SERVICIO DE AGUA POTABLE E INSTALACION DEL SANEAMIENTO BASICO DE LA LOCALIDAD DE SANTA ROSA , DISTRITO DE FRIAS - AYABACA - PIURA",PROGRAMA NACIONAL DE SANEAMIENTO RURAL,PIURA,AYABACA,FRIAS,200202,284,2373752.18,NÚCLEO EJECUTOR,OBRA,POST EJECUCIÓN,2021-10-04,2022-05-31,ACTIVO,-4.930279999999925,-79.94733999999994
PNSR,298317,2307914,"AMPLIACION Y MEJORAMIENTO DEL SERVICIO DE AGUA POTABLE Y DISPOSICION SANITARIA DE EXCRETAS EN EL CENTRO POBLADO DE PHUSCA , DISTRITO DE USICAYOS - CARABAYA - PUNO",PROGRAMA NACIONAL DE SANEAMIENTO RURAL,PUNO,CARABAYA,USICAYOS,210310,364,2993356.23,NÚCLEO EJECUTOR,OBRA,EN EJECUCIÓN,2021-08-09,2023-09-23,ACTIVO,-14.127339999999947,-69.96712999999994
PNSR,293722,2200394,"MEJORAMIENTO Y AMPLIACION DEL SERVICIO DE AGUA POTABLE Y DISPOSICION DE EXCRETAS DE LA LOCALIDAD EL MIRADOR , DISTRITO DE BUENOS AIRES - PICOTA - SAN MARTIN",PROGRAMA NACIONAL DE SANEAMIENTO RURAL,SAN MARTIN,"PICOTA,BELLAVISTA","BUENOS AIRES,SAN PABLO",220702,343,2143742.43,NÚCLEO EJECUTOR,OBRA,CERRADO,2021-05-08,2021-12-08,CERRADO,-34.67267999999996,-58.48744999999997
PNSR,292368,2235255,"AMPLIACIÓN Y MEJORAMIENTO DEL SERVICIO DE AGUA POTABLE Y SANEAMIENTO BÁSICO EN EL CENTRO POBLADO VISTA ALEGRE, DISTRITO DE SORITOR - MOYOBAMBA - SAN MARTÍN",PROGRAMA NACIONAL DE SANEAMIENTO RURAL,SAN MARTIN,MOYOBAMBA,SORITOR,220105,333,2467310.35,NÚCLEO EJECUTOR,OBRA,TRANSFERENCIA,2021-05-03,2021-11-25,ACTIVO,-6.123569999999972,-77.09703999999994
PNSR,292134,2235252,"AMPLIACIÓN Y MEJORAMIENTO DEL SERVICIO DE AGUA POTABLE Y SANEAMIENTO BÁSICO DEL CENTRO POBLADO LIMABAMBA, DISTRITO DE SORITOR -MOYOBAMBA- SAN MARTIN",PROGRAMA NACIONAL DE SANEAMIENTO RURAL,SAN MARTIN,MOYOBAMBA,SORITOR,220105,346,2498132.29,NÚCLEO EJECUTOR,OBRA,POST EJECUCIÓN,2021-05-04,2021-11-30,ACTIVO,-6.123569999999972,-77.09703999999994
PNSR,291902,2235590,"MEJORAMIENTO Y AMPLIACIÓN DEL SERVICIO DE AGUA POTABLE E INSTALACIÓN DEL SERVICIO DE DISPOSICIÓN SANITARIA DE EXCRETAS EN EL CENTRO POBLADO BELLA DURMIENTE, DISTRITO DE PAMPA HERMOSA - SATIPO - JUNÍN",PROGRAMA NACIONAL DE SANEAMIENTO RURAL,JUNIN,SATIPO,PAMPA HERMOSA,120605,203,1447107.54,NÚCLEO EJECUTOR,OBRA,CERRADO,2019-08-15,2020-01-28,CERRADO,-11.392489999999952,-74.75201999999996
PNSR,290932,2254001,"MEJORAMIENTO Y AMPLIACIÓN DEL SERVICIO DE AGUA POTABLE E INSTALACIÓN DEL SERVICIO DE SANEAMIENTO EN EL CENTRO POBLADO DUELAC, DISTRITO DE JAMALCA- UTCUBAMBA- AMAZONAS",PROGRAMA NACIONAL DE SANEAMIENTO RURAL,AMAZONAS,UTCUBAMBA,JAMALCA,10705,266,2232366.11,NÚCLEO EJECUTOR,OBRA,TRANSFERENCIA,2019-11-07,2020-12-07,ACTIVO,-5.889509999999973,-78.25382999999994
PNSR,306781,2260980,"AMPLIACION Y MEJORAMIENTO DEL SERVICIO DE AGUA POTABLE Y DISPOSICION SANITARIA DE EXCRETAS EN EL CENTRO POBLADO DE ALTO HUAHUARI , DISTRITO DE RIO NEGRO - SATIPO - JUNIN",PROGRAMA NACIONAL DE SANEAMIENTO RURAL,JUNIN,SATIPO,RIO NEGRO,120607,306,1997706.71,NÚCLEO EJECUTOR,OBRA,CERRADO,2019-11-11,2020-10-24,CERRADO,-11.100989999999967,-74.69651999999996
PNSR,300046,2284317,"MEJORAMIENTO Y AMPLIACION DEL SERVICIO DE AGUA POTABLE E INSTALACION DEL SERVICIO DE SANEAMIENTO EN EL CENTRO POBLADO URCOPATA, DISTRITO DE LAMAS , PROVINCIA DE LAMAS - SAN MARTIN",PROGRAMA NACIONAL DE SANEAMIENTO RURAL,SAN MARTIN,LAMAS,LAMAS,220501,229,1637630.23,NÚCLEO EJECUTOR,OBRA,CERRADO,2021-04-14,2021-07-31,CERRADO,-6.277034484999945,-76.42064513599996
PNSR,289548,2198631,"INSTALACION DEL SERVICIO DE AGUA POTABLE Y SANEAMIENTO DEL CENTRO POBLADO RURAL DE BUENOS AIRES, DISTRITO DE BELLAVISTA, PROVINCIA DE BELLAVISTA, DEPARTAMENTO DE SAN MARTIN",PROGRAMA NACIONAL DE SANEAMIENTO RURAL,SAN MARTIN,BELLAVISTA,BELLAVISTA,220201,203,1642585.96,NÚCLEO EJECUTOR,OBRA,TRANSFERENCIA,2021-08-16,2022-02-18,ACTIVO,-4.89017999999993,-80.67415999999997
PNSR,240682,2183858,"MEJORAMIENTO, AMPLIACION DE LOS SERVICIOS DE AGUA POTABLE Y DISPOSICIÓN SANITARIA DE EXCRETAS DE LA COMUNIDAD CAMPESINA DE CHAJANA, DISTRITO DE ACORA - PUNO - PUNO",PROGRAMA NACIONAL DE SANEAMIENTO RURAL,PUNO,PUNO,ACORA,210101,277,1988809.59,NÚCLEO EJECUTOR,OBRA,CERRADO,2015-10-19,2016-11-04,CERRADO,-15.973859999999945,-69.79544999999996
PNSR,267125,2185041,MEJORAMIENTO Y AMPLIACIÓN DEL SERVICIO DE AGUA POTABLE Y SANEAMIENTO EN LA COMUNIDAD DE PUCHURI  - DISTRITO SICUANI- PROVINCIA CANCHIS - REGIÓN CUSCO,PROGRAMA NACIONAL DE SANEAMIENTO RURAL,CUSCO,CANCHIS,SICUANI,80601,375,1911188.23,NÚCLEO EJECUTOR,OBRA,CERRADO,2015-11-03,2016-10-14,CERRADO,-14.272689999999955,-71.23077999999998
PNSR,255366,2185032,"MEJORAMIENTO Y AMPLIACIÓN DEL SERVICIO DE AGUA POTABLE Y SANEAMIENTO DEL ANEXO DE PICOTAYOC DE LA COMUNIDAD DE QUEROMARCA,  DISTRITO TINTA, PROVINCIA CANCHIS, REGIÓN CUSCO",PROGRAMA NACIONAL DE SANEAMIENTO RURAL,CUSCO,CANCHIS,TINTA,80608,178,1518544.67,NÚCLEO EJECUTOR,OBRA,CERRADO,2015-11-03,2016-10-04,CERRADO,-14.111969999999928,-71.41885999999994
PNSR,257185,2187531,"MEJORAMIENTO Y AMPLIACION DE LOS  SERVICIOS DE AGUA POTABLE Y DISPOSICIÓN SANITARIA DE EXCRETAS DE LA COMUNIDAD CAMPESINA TITIHUE (SECTOR JACHA), DISTRITO DE HUANCANÉ, PROVINCIA DE HUANCANÉ, DEPARTAMENTO DE PUNO",PROGRAMA NACIONAL DE SANEAMIENTO RURAL,PUNO,HUANCANE,HUANCANE,210601,232,1277927.62,NÚCLEO EJECUTOR,OBRA,CERRADO,2016-04-04,2016-09-30,CERRADO,-15.200409999999977,-69.76316999999995
PNSR,253332,2183863,"MEJORAMIENTO Y AMPLIACIÓN DE LOS SERVICIOS DE AGUA POTABLE Y DISPOSICIÓN SANITARIA DE EXCRETAS  DE LA COMUNIDAD CAMPESINA DE HUAÑUSCURO, CENTRO  POBLADO JAYU JAYU, DISTRITO DE ACORA, PUNO - PUNO.",PROGRAMA NACIONAL DE SANEAMIENTO RURAL,PUNO,PUNO,ACORA,210102,487,2426587.96,NÚCLEO EJECUTOR,OBRA,CERRADO,2015-11-04,2016-09-14,CERRADO,-15.973859999999945,-69.79544999999996
PNSR,253805,2189341,"MEJORAMIENTO Y AMPLIACIÓN DE LOS SERVICIOS DE AGUA POTABLE Y DISPOSICIÓN SANITARIA DE EXCRETAS  DE LA COMUNIDAD CAMPESINA DE MOCARAYA, CENTRO  POBLADO CCAPALLA, DISTRITO DE ACORA, PUNO - PUNO.",PROGRAMA NACIONAL DE SANEAMIENTO RURAL,PUNO,PUNO,ACORA,210102,224,1659874.41,NÚCLEO EJECUTOR,OBRA,TRANSFERENCIA,2015-10-21,2016-09-15,ACTIVO,-15.973859999999945,-69.79544999999996
PNSR,257060,2187534,"MEJORAMIENTO Y AMPLIACION DE LOS  SERVICIOS DE AGUA POTABLE Y DISPOSICIÓN SANITARIA DE EXCRETAS DE LA COMUNIDAD CAMPESINA DE TIQUIRINI - TOTERIA, DISTRITO DE HUANCANÉ, PROVINCIA DE HUANCANÉ, DEPARTAMENTO DE PUNO",PROGRAMA NACIONAL DE SANEAMIENTO RURAL,PUNO,HUANCANE,HUANCANE,210601,303,1965356.7,NÚCLEO EJECUTOR,OBRA,CERRADO,2015-10-26,2016-09-02,CERRADO,-15.200409999999977,-69.76316999999995
PNSR,267653,2185040,"MEJORAMIENTO Y AMPLIACIÓN DEL SERVICIO DE AGUA POTABLE Y SANEAMIENTO EN LOS BARRIOS DE CHILCOMA ALTO Y CHILCOMA BAJO DE LA COMUNIDAD DE CHIHUACO,  DISTRITO SICUANI, PROVINCIA CANCHIS, REGIÓN CUSCO",PROGRAMA NACIONAL DE SANEAMIENTO RURAL,CUSCO,CANCHIS,SICUANI,80601,453,2416629.05,NÚCLEO EJECUTOR,OBRA,CERRADO,2015-11-05,2016-07-11,CERRADO,-14.272689999999955,-71.23077999999998
PNSR,257213,2189509,"INSTALACION DEL SERVICIO DE AGUA POTABLE Y DISPOSICIÓN SANITARIA DE EXCRETAS LA COMUNIDAD CAMPESINA DE QUENAFAJA, DISTRITO DE ACORA, PROVINCIA DE PUNO, DEPARTAMENTO PUNO",PROGRAMA NACIONAL DE SANEAMIENTO RURAL,PUNO,PUNO,ACORA,210102,510,2488488.33,NÚCLEO EJECUTOR,OBRA,POST EJECUCIÓN,2015-10-15,2017-06-02,ACTIVO,-15.973859999999945,-69.79544999999996
PNSR,253810,2186041,"MEJORAMIENTO Y AMPLIACIÓN DE LOS  SERVICIOS DE AGUA POTABLE Y DISPOSICIÓN SANITARIA DE EXCRETAS DE LA COMUNIDAD  CAMPESINA DE VILLAPAMPA, DISTRITO DE ASILLO, AZÁNGARO-PUNO.",PROGRAMA NACIONAL DE SANEAMIENTO RURAL,PUNO,AZANGARO,ASILLO,210204,308,2394705.02,NÚCLEO EJECUTOR,OBRA,CERRADO,2015-11-09,2016-10-07,CERRADO,-14.787039999999934,-70.35338999999993
PNSR,247305,2178837,"MEJORAMIENTO Y AMPLIACIÓN DEL SERVICIO DE AGUA POTABLE E INSTALACIÓN DE UNIDADES BÁSICAS DE SANEAMIENTO (UBS) EN LA LOCALIDAD DE HUITOTOCCTO, DISTRITO DE TAMBO, PROVINCIA  DE LA MAR - AYACUCHO",PROGRAMA NACIONAL DE SANEAMIENTO RURAL,AYACUCHO,LA MAR,TAMBO,50508,264,1484547.24,NÚCLEO EJECUTOR,OBRA,CERRADO,2016-01-02,2016-08-16,CERRADO,-12.947729999999979,-74.01897999999994
PNSR,250019,2172737,"MEJORAMIENTO Y AMPLIACIÓN DEL SERVICIO DE AGUA POTABLE E INSTALACIÓN DE UNIDADES BÁSICAS DE SANEAMIENTO (UBS) EN LA LOCALIDAD DE MAHUAYURA, DISTRITO DE TAMBO, PROVINCIA  DE LA MAR - AYACUCHO",PROGRAMA NACIONAL DE SANEAMIENTO RURAL,AYACUCHO,LA MAR,TAMBO,50508,323,1429991.26,NÚCLEO EJECUTOR,OBRA,CERRADO,2016-01-04,2016-08-24,CERRADO,-12.947729999999979,-74.01897999999994
PNSR,257062,2187529,"MEJORAMIENTO Y AMPLIACION DE LOS  SERVICIOS DE AGUA POTABLE Y DISPOSICIÓN SANITARIA DE EXCRETAS DE LA COMUNIDAD CAMPESINA SANTA CRUZ DE MACHARIRI, DISTRITO DE ASILLO, AZANGARO - PUNO",PROGRAMA NACIONAL DE SANEAMIENTO RURAL,PUNO,AZANGARO,ASILLO,210204,314,1954077.47,NÚCLEO EJECUTOR,OBRA,CONCLUIDO,2015-10-19,2018-11-29,ACTIVO,-14.787039999999934,-70.35338999999993
PNSR,245437,2172724,"MEJORAMIENTO Y AMPLIACIÓN DEL SERVICIO DE AGUA  POTABLE E INSTALACIÓN DE UNIDADES BÁSICAS DE SANEAMIENTO (UBS) EN LA LOCALIDAD DE CHALHUAMAYO ALTA, DISTRITO DE TAMBO, PROVINCIA  DE LA MAR - AYACUCHO",PROGRAMA NACIONAL DE SANEAMIENTO RURAL,AYACUCHO,LA MAR,TAMBO,50508,224,1117487.71,NÚCLEO EJECUTOR,OBRA,CERRADO,2016-01-11,2016-08-27,CERRADO,-12.947729999999979,-74.01897999999994
PNSR,252468,2172755,MEJORAMIENTO Y AMPLIACION DEL SERVICIO DE AGUA POTABLE Y SANEAMIENTO EN EL ANEXO SANTA ANA DE LA COMUNIDAD DE SANTA LUCIA - DISTRITO POMACANCHI - PROVINCIA ACOMAYO - REGIÓN CUSCO,PROGRAMA NACIONAL DE SANEAMIENTO RURAL,CUSCO,ACOMAYO,POMACANCHI,80205,216,1665810.23,NÚCLEO EJECUTOR,OBRA,CERRADO,2015-11-09,2016-11-10,CERRADO,-13.996739999999932,-71.56320999999997
PNSR,252318,2183861,"MEJORAMIENTO Y AMPLIACIÓN DE LOS SERVICIOS DE AGUA POTABLE Y DISPOSICION SANITARIA DE EXCRETAS DE LA COMUNIDAD CAMPESINA DE QUELCCA OPOJANI, DISTRITO DE ACORA, PROVINCIA DE PUNO, DEPARTAMENTO PUNO",PROGRAMA NACIONAL DE SANEAMIENTO RURAL,PUNO,PUNO,ACORA,210102,561,2083097.92,NÚCLEO EJECUTOR,OBRA,CERRADO,2015-11-09,2016-07-27,CERRADO,-15.973859999999945,-69.79544999999996
PNSR,257913,2178735,"AMPLIACION Y MEJORAMIENTO DEL SISTEMA DE AGUA E INSTALACION DE UNIDADES BASICAS DE SANEAMIENTO DE LA LOCALIDAD DE HUMAHUIRE , DISTRITO DE TAMBOBAMBA - COTABAMBAS - APURIMAC",PROGRAMA NACIONAL DE SANEAMIENTO RURAL,APURIMAC,COTABAMBAS,TAMBOBAMBA,30501,275,1412864.91,NÚCLEO EJECUTOR,OBRA,CERRADO,2016-03-14,2016-12-07,CERRADO,-13.946899999999971,-72.17560999999995
PNSR,240743,2170996,"INSTALACION DEL SERVICIO DE AGUA POTABLE Y SANEAMIENTO BASICO DE LA LOCALIDAD DE VISTA ALEGRE , DISTRITO DE YAULI - HUANCAVELICA - HUANCAVELICA",PROGRAMA NACIONAL DE SANEAMIENTO RURAL,HUANCAVELICA,HUANCAVELICA,YAULI,90117,463,1974148.61,NÚCLEO EJECUTOR,OBRA,CERRADO,2016-05-02,2016-12-14,CERRADO,-12.736479999999972,-74.82304999999997
PNSR,252328,2186038,"MEJORAMIENTO Y AMPLIACIÓN DE LOS SERVICIOS DE AGUA POTABLE Y DISPOSICIÓN SANITARIA DE EXCRETAS  DE LA COMUNIDAD CAMPESINA DE PARAPICHUZA, CENTRO  POBLADO TOTORANI, DISTRITO DE ACORA, PUNO - PUNO",PROGRAMA NACIONAL DE SANEAMIENTO RURAL,PUNO,PUNO,ACORA,210102,178,1742073.13,NÚCLEO EJECUTOR,OBRA,CERRADO,2015-10-19,2016-09-30,CERRADO,-15.973859999999945,-69.79544999999996
PNSR,257047,2189489,"MEJORAMIENTO Y AMPLIACIÓN DE LOS SERVICIOS DE AGUA POTABLE Y DISPOSICIÓN SANITARIA DE EXCRETAS DE LA COMUNIDAD CAMPESINA DE QUISHUARANI, DISTRITO DE HUANCANÉ, HUANCANÉ - PUNO",PROGRAMA NACIONAL DE SANEAMIENTO RURAL,PUNO,HUANCANE,HUANCANE,210601,265,1929746.15,NÚCLEO EJECUTOR,OBRA,CERRADO,2015-10-26,2016-12-07,CERRADO,-15.200409999999977,-69.76316999999995
PNSR,267151,2186351,MEJORAMIENTO Y AMPLIACION DEL SERVICIO DE AGUA POTABLE Y SANEAMIENTO EN LOS BARRIOS LLACTIHUIRI - COLLPATERA DE LA COMUNIDAD DE HERCCA - DISTRITO SICUANI - PROVINCIA CANCHIS - REGIÓN CUSCO,PROGRAMA NACIONAL DE SANEAMIENTO RURAL,CUSCO,CANCHIS,SICUANI,80601,317,2319540.27,NÚCLEO EJECUTOR,OBRA,CERRADO,2015-11-09,2016-07-07,CERRADO,-14.272689999999955,-71.23077999999998
PNSR,259284,2183849,"AMPLIACION Y MEJORAMIENTO DEL SISTEMA DE AGUA E INSTALACION DE UNIDADES BASICAS DE SANEAMIENTO DE LA LOCALIDAD DE SAN ANDRES DE YANACCA , DISTRITO DE TAMBOBAMBA - COTABAMBAS - APURIMAC",PROGRAMA NACIONAL DE SANEAMIENTO RURAL,APURIMAC,COTABAMBAS,TAMBOBAMBA,30501,344,1681631.7,NÚCLEO EJECUTOR,OBRA,CERRADO,2016-06-14,2017-03-03,CERRADO,-13.946899999999971,-72.17560999999995
PNSR,237087,2170950,INSTALACION DEL SERVICIO DE AGUA POTABLE Y SANEAMIENTO BASICO DE LA LOCALIDAD DE CCARHUACCPAMPA BAJO – DISTRITO YAULI – PROVINCIA HUANCAVELICA – REGIÓN HUANCAVELICA,PROGRAMA NACIONAL DE SANEAMIENTO RURAL,HUANCAVELICA,HUANCAVELICA,YAULI,90117,232,1132367.79,NÚCLEO EJECUTOR,OBRA,CONCLUIDO,2016-06-22,2017-02-14,ACTIVO,-12.736479999999972,-74.82304999999997
PNSR,242479,2170955,"INSTALACION DEL SERVICIO DE AGUA POTABLE Y SANEAMIENTO BASICO DE LA LOCALIDAD DE HORNOPAMPA , DISTRITO DE YAULI - HUANCAVELICA - HUANCAVELICA",PROGRAMA NACIONAL DE SANEAMIENTO RURAL,HUANCAVELICA,ACOBAMBA,PAUCARA,90117,242,1528823.54,NÚCLEO EJECUTOR,OBRA,CERRADO,2016-06-22,2017-02-28,CERRADO,-12.728329999999971,-74.66644999999994
PNSR,251803,2172747,"MEJORAMIENTO Y AMPLIACIÓN DEL SERVICIO DE AGUA POTABLE Y SANEAMIENTO DE LA COMUNIDAD DE JILAYHUA,  DISTRITO YANAOCA, PROVINCIA CANAS, REGIÓN CUSCO",PROGRAMA NACIONAL DE SANEAMIENTO RURAL,CUSCO,CANAS,YANAOCA,80501,558,2465239.54,NÚCLEO EJECUTOR,OBRA,CONCLUIDO,2016-05-16,2017-02-16,ACTIVO,-14.217759999999942,-71.43077999999997
PNSR,267651,2185038,MEJORAMIENTO Y AMPLIACIÓN DEL SERVICIO DE AGUA POTABLE Y SANEAMIENTO EN EL BARRIO OLLERIA DE LA COMUNIDAD DE HERCCA - DISTRITO SICUANI- PROVINCIA CANCHIS - REGIÓN CUSCO,PROGRAMA NACIONAL DE SANEAMIENTO RURAL,CUSCO,CANCHIS,SICUANI,80601,286,1647052.17,NÚCLEO EJECUTOR,OBRA,CERRADO,2015-11-04,2016-08-09,CERRADO,-14.272689999999955,-71.23077999999998
PNSR,259174,2185036,MEJORAMIENTO Y AMPLIACIÓN DEL SERVICIO DE AGUA POTABLE Y SANEAMIENTO EN LA COMUNIDAD DE LAHUALAHUA PATATINTA -  DISTRITO TINTA - PROVINCIA CANCHIS - REGIÓN CUSCO,PROGRAMA NACIONAL DE SANEAMIENTO RURAL,CUSCO,CANCHIS,TINTA,80608,270,1919048.98,NÚCLEO EJECUTOR,OBRA,CERRADO,2015-11-16,2016-08-22,CERRADO,-14.111969999999928,-71.41885999999994
PNSR,253796,2186044,"MEJORAMIENTO Y AMPLIACION DE LOS SERVICIOS DE AGUA POTABLE Y DISPOSICION SANITARIA DE EXCRETAS DE LA COMUNIDAD CAMPESINA DE CHOQUEPIÑA, DISTRITO DE ASILLO, AZANGARO - PUNO",PROGRAMA NACIONAL DE SANEAMIENTO RURAL,PUNO,AZANGARO,ASILLO,210204,296,1619114.79,NÚCLEO EJECUTOR,OBRA,CERRADO,2015-11-09,2016-07-07,CERRADO,-14.787039999999934,-70.35338999999993
PNSR,253339,2189344,"MEJORAMIENTO Y AMPLIACIÓN DE LOS SERVICIOS DE AGUA POTABLE Y DISPOSICIÓN SANITARIA DE EXCRETAS  DE LA COMUNIDAD CAMPESINA DE  CHALLACOLLO, CENTRO  POBLADO INCASAMAWI, DISTRITO DE ACORA, PUNO - PUNO",PROGRAMA NACIONAL DE SANEAMIENTO RURAL,PUNO,PUNO,ACORA,210102,401,2182877.11,NÚCLEO EJECUTOR,OBRA,CERRADO,2015-11-04,2016-12-07,CERRADO,-15.973859999999945,-69.79544999999996
PNSR,239678,2170958,"INSTALACION DEL SERVICIO DE AGUA POTABLE Y SANEAMIENTO BASICO DE LA LOCALIDAD DE INCANAN UCHKUS , DISTRITO DE YAULI - HUANCAVELICA - HUANCAVELICA",PROGRAMA NACIONAL DE SANEAMIENTO RURAL,HUANCAVELICA,HUANCAVELICA,YAULI,90117,564,2383704.79,NÚCLEO EJECUTOR,OBRA,CERRADO,2016-06-01,2017-04-18,CERRADO,-12.736479999999972,-74.82304999999997
PNSR,243684,2172370,"MEJORAMIENTO DEL SERVICIO DE AGUA POTABLE E INSTALACION DE SANEAMIENTO BASICO DE LA LOCALIDAD DE VISTA ALEGRE DE SACHAPITE , DISTRITO DE YAULI - HUANCAVELICA - HUANCAVELICA",PROGRAMA NACIONAL DE SANEAMIENTO RURAL,HUANCAVELICA,HUANCAVELICA,HUANCAVELICA,90117,402,1886940.5,NÚCLEO EJECUTOR,OBRA,CERRADO,2016-04-27,2017-04-19,CERRADO,-12.784539999999936,-74.96452999999997
PNSR,243906,2170954,"INSTALACION DEL SERVICIO DE AGUA POTABLE Y SANEAMIENTO BASICO DE LA LOCALIDAD DE CONDORHUACHANA- , DISTRITO DE YAULI - HUANCAVELICA - HUANCAVELICA",PROGRAMA NACIONAL DE SANEAMIENTO RURAL,HUANCAVELICA,HUANCAVELICA,YAULI,90117,638,1735345.99,NÚCLEO EJECUTOR,OBRA,CERRADO,2016-05-23,2017-12-06,CERRADO,-12.736479999999972,-74.82304999999997
PNSR,249833,2168165,"AMPLIACION Y MEJORAMIENTO DEL SISTEMA DE AGUA E INSTALACION DE UNIDADES BASICAS DE SANEAMIENTO DE LA LOCALIDAD DE HUICSUPILLO , DISTRITO DE HAQUIRA - COTABAMBAS - APURIMAC",PROGRAMA NACIONAL DE SANEAMIENTO RURAL,APURIMAC,COTABAMBAS,HAQUIRA,30504,248,1581116.77,NÚCLEO EJECUTOR,OBRA,CONCLUIDO,2016-04-18,2017-08-28,ACTIVO,-14.212899999999934,-72.18955999999997
PNSR,251106,2172749,"MEJORAMIENTO Y AMPLIACIÓN DEL SERVICIO DE AGUA POTABLE Y SANEAMIENTO DEL ANEXO DE PUCA PUCA,  DISTRITO YANAOCA, PROVINCIA CANAS, REGIÓN CUSCO",PROGRAMA NACIONAL DE SANEAMIENTO RURAL,CUSCO,CANAS,YANAOCA,80501,365,1864362.0,NÚCLEO EJECUTOR,OBRA,CERRADO,2016-05-02,2017-02-03,CERRADO,-14.217759999999942,-71.43077999999997
PNSR,261464,2185035,"MEJORAMIENTO Y AMPLIACION DEL SERVICIO DE AGUA POTABLE E INSTALACION DE UNIDADES BASICAS DE SANEAMIENTO (UBS) EN LA LOCALIDAD DE TRANCA  DISTRITO DE CHILCAS, PROVINCIA LA MAR -AYACUCHO",PROGRAMA NACIONAL DE SANEAMIENTO RURAL,AYACUCHO,LA MAR,CHILCAS,50504,237,1126341.75,NÚCLEO EJECUTOR,OBRA,CERRADO,2016-09-01,2017-04-22,CERRADO,-13.194969999999955,-73.87234999999998
PNSR,254863,2185028,"MEJORAMIENTO Y AMPLIACIÓN DEL SERVICIO DE AGUA POTABLE E INSTALACION DE UNIDADES BÁSICAS DE SANEAMIENTO (UBS) EN LA LOCALIDAD DE SANTA CATALINA DE TRANCA, DISTRITO DE SAN MIGUEL, PROVINCIA DE LA MAR - AYACUCHO",PROGRAMA NACIONAL DE SANEAMIENTO RURAL,AYACUCHO,LA MAR,SAN MIGUEL,50501,233,1409207.42,NÚCLEO EJECUTOR,OBRA,CERRADO,2016-01-11,2016-10-07,CERRADO,-12.077999999999975,-77.09586999999993
PNSR,255318,2185043,"MEJORAMIENTO Y AMPLIACIÓN DEL SERVICIO DE AGUA POTABLE E INSTALACIÓN DE UNIDADES BÁSICAS DE SANEAMIENTO (UBS) EN LA LOCALIDAD DE PATAHUASI, DISTRITO DE ANCO, PROVINCIA DE LA MAR, DEPARTAMENTO AYACUCHO.",PROGRAMA NACIONAL DE SANEAMIENTO RURAL,AYACUCHO,LA MAR,ANCO,50502,266,1052673.0,NÚCLEO EJECUTOR,OBRA,CERRADO,2016-08-15,2017-04-04,CERRADO,-13.09463999999997,-73.71118999999999
PNSR,258874,2186345,"MEJORAMIENTO Y AMPLIACIÓN  DEL SERVICIO DE AGUA POTABLE E INSTALACION DE UNIDADES BASICAS DE SANEAMIENTO (UBS) EN LA LOCALIDAD DE UNION CERRO DE ORO, DISTRITO DE ANCO, PROVINCIA DE LA MAR Y REGIÓN AYACUCHO.",PROGRAMA NACIONAL DE SANEAMIENTO RURAL,AYACUCHO,LA MAR,ANCO,50502,238,1131271.29,NÚCLEO EJECUTOR,OBRA,CERRADO,2016-07-04,2017-02-18,CERRADO,-13.09463999999997,-73.71118999999999
PNSR,252143,2178840,"MEJORAMIENTO Y AMPLIACIÓN DEL SERVICIO DE AGUA POTABLE E INSTALACION DE UNIDADES BÁSICAS DE SANEAMIENTO (UBS) EN LA LOCALIDAD DE PATAPATA, DISTRITO DE TAMBO, PROVINCIA DE LA MAR - AYACUCHO",PROGRAMA NACIONAL DE SANEAMIENTO RURAL,AYACUCHO,LA MAR,TAMBO,50508,312,1795018.91,NÚCLEO EJECUTOR,OBRA,CERRADO,2016-01-02,2016-08-19,CERRADO,-12.947729999999979,-74.01897999999994
PNSR,251587,2168164,"AMPLIACION Y MEJORAMIENTO DEL SISTEMA DE AGUA E INSTALACION DE UNIDADES BASICAS DE SANEAMIENTO DE LA LOCALIDAD DE HUANCAHUANCA AHUALLA , DISTRITO DE HUANCARAMA - ANDAHUAYLAS - APURIMAC",PROGRAMA NACIONAL DE SANEAMIENTO RURAL,APURIMAC,ANDAHUAYLAS,HUANCARAMA,30204,197,1359233.93,NÚCLEO EJECUTOR,OBRA,CERRADO,2016-03-16,2016-12-02,CERRADO,-13.66405999999995,-73.05418999999995
PNSR,249296,2168161,"AMPLIACION Y MEJORAMIENTO DEL SISTEMA DE AGUA E INSTALACION DE UNIDADES BASICAS DE SANEAMIENTO DE LA LOCALIDAD DE HAPURO , DISTRITO DE HAQUIRA - COTABAMBAS - APURIMAC",PROGRAMA NACIONAL DE SANEAMIENTO RURAL,APURIMAC,COTABAMBAS,HAQUIRA,30504,286,1710499.9,NÚCLEO EJECUTOR,OBRA,CERRADO,2016-04-18,2017-08-14,CERRADO,-14.212899999999934,-72.18955999999997
PNSR,251582,2178728,"AMPLIACION Y MEJORAMIENTO DEL SISTEMA DE AGUA E INSTALACION DE UNIDADES BASICAS DE SANEAMIENTO DE LA LOCALIDAD DE TAMBO MACCASPACCA , DISTRITO DE HUANCARAMA - ANDAHUAYLAS - APURIMAC",PROGRAMA NACIONAL DE SANEAMIENTO RURAL,APURIMAC,ANDAHUAYLAS,HUANCARAMA,30204,290,1629648.32,NÚCLEO EJECUTOR,OBRA,CERRADO,2016-04-18,2017-01-23,CERRADO,-13.66405999999995,-73.05418999999995
PNSR,252490,2178854,MEJORAMIENTO Y AMPLIACIÓN DEL SERVICIO DE AGUA POTABLE Y SANEAMIENTO EN LOS BARRIOS UNORAQUINA CENTRAL CCHINQUI DE LA COMUNIDAD DE HUAYLLAPUNCO   – DISTRITO MARANGANI – PROVINCIA CANCHIS – REGIÓN CUSCO,PROGRAMA NACIONAL DE SANEAMIENTO RURAL,CUSCO,CANCHIS,MARANGANI,80604,185,1026598.41,NÚCLEO EJECUTOR,OBRA,CERRADO,2016-05-02,2016-10-11,CERRADO,-14.35743999999994,-71.16839999999996
PNSR,258226,2178827,MEJORAMIENTO Y AMPLIACIÓN DEL SERVICIO DE AGUA POTABLE Y SANEAMIENTO EN EL ANEXO HUMAHUAÑAPAMPA Y AÑOHUMA COMUNIDAD DE HAMPATURA  - DISTRITO YANAOCA- PROVINCIA CANAS - REGIÓN CUSCO,PROGRAMA NACIONAL DE SANEAMIENTO RURAL,CUSCO,CANAS,YANAOCA,80501,277,1981252.94,NÚCLEO EJECUTOR,OBRA,CERRADO,2016-04-20,2016-11-22,CERRADO,-14.217759999999942,-71.43077999999997
PNSR,246212,2172756,MEJORAMIENTO Y AMPLIACIÓN DEL SERVICIO DE AGUA POTABLE Y SANEAMIENTO EN EL SECTOR SURIMANA ALTA DE LA COMUNIDAD DE SURIMANA  - DISTRITO TUPAC AMARU- PROVINCIA CANAS - REGIÓN CUSCO,PROGRAMA NACIONAL DE SANEAMIENTO RURAL,CUSCO,CANAS,TUPAC AMARU,80508,191,2208045.18,NÚCLEO EJECUTOR,OBRA,CERRADO,2016-06-01,2017-02-25,CERRADO,-14.133119999999963,-71.52112999999997
PNSR,239511,2170987,"INSTALACION DEL SERVICIO DE AGUA POTABLE Y SANEAMIENTO BASICO DE LA LOCALIDAD DE SANTA ROSA DE CHOPCCA , DISTRITO DE YAULI - HUANCAVELICA - HUANCAVELICA",PROGRAMA NACIONAL DE SANEAMIENTO RURAL,HUANCAVELICA,HUANCAVELICA,YAULI,90117,527,2221836.96,NÚCLEO EJECUTOR,OBRA,CONCLUIDO,2016-05-10,2017-10-31,ACTIVO,-12.736479999999972,-74.82304999999997
PNSR,240577,2172714,"MEJORAMIENTO Y AMPLIACIÓN DE LOS SISTEMAS DE AGUA POTABLE Y DISPOSICIÓN DE EXCRETAS DE LA COMUNIDAD CAMPESINA DE CHAMCHILLA, DISTRITO DE ACORA",PROGRAMA NACIONAL DE SANEAMIENTO RURAL,PUNO,PUNO,ACORA,210102,272,2145374.06,NÚCLEO EJECUTOR,OBRA,CERRADO,2015-11-05,2016-08-26,CERRADO,-15.973859999999945,-69.79544999999996
PNSR,237582,2170966,"INSTALACION DEL SERVICIO DE AGUA POTABLE Y SANEAMIENTO BASICO DE LA LOCALIDAD DE MOSOCCCANCHA , DISTRITO DE YAULI - HUANCAVELICA - HUANCAVELICA",PROGRAMA NACIONAL DE SANEAMIENTO RURAL,HUANCAVELICA,HUANCAVELICA,YAULI,90117,349,1866926.39,NÚCLEO EJECUTOR,OBRA,CERRADO,2016-05-19,2017-01-07,CERRADO,-12.736479999999972,-74.82304999999997
PNSR,252272,2183874,"MEJORAMIENTO Y AMPLIACIÓN DE LOS SERVICIOS DE AGUA POTABLE Y DISPOSICIÓN SANITARIA DE EXCRETAS  DE LA COMUNIDAD CAMPESINA DE AMACHOCCO, CENTRO  POBLADO CRUCERO, DISTRITO DE ACORA, PUNO - PUNO",PROGRAMA NACIONAL DE SANEAMIENTO RURAL,PUNO,PUNO,ACORA,210102,178,1487885.72,NÚCLEO EJECUTOR,OBRA,CERRADO,2016-03-10,2016-09-30,CERRADO,-15.973859999999945,-69.79544999999996
PNSR,240643,2186039,"MEJORAMIENTO Y AMPLIACIÓN DE LOS SISTEMAS DE AGUA POTABLE Y DISPOSICIÓN SANITARIA DE EXCRETAS DE LA COMUNIDAD CAMPESINA DE HUANCARTINQUIHUI, DISTRITO DE ACORA",PROGRAMA NACIONAL DE SANEAMIENTO RURAL,PUNO,PUNO,ACORA,210102,351,1671570.27,NÚCLEO EJECUTOR,OBRA,CERRADO,2016-04-11,2016-11-23,CERRADO,-15.973859999999945,-69.79544999999996
PNSR,241652,2170971,"INSTALACION DEL SERVICIO DE AGUA POTABLE Y SANEAMIENTO BASICO DE LA LOCALIDAD DE PALTAMACHAY , DISTRITO DE YAULI - HUANCAVELICA - HUANCAVELICA",PROGRAMA NACIONAL DE SANEAMIENTO RURAL,HUANCAVELICA,HUANCAVELICA,YAULI,90117,546,2330823.05,NÚCLEO EJECUTOR,OBRA,CONCLUIDO,2016-04-12,2017-05-03,ACTIVO,-12.736479999999972,-74.82304999999997
PNSR,245909,2172769,"MEJORAMIENTO Y AMPLIACIÓN DEL SISTEMA DE AGUA POTABLE E INSTALACION DEL SERVICIO DE UNIDADES BASICAS DE SANEAMIENTO (UBS) EN LA LOCALIDAD DE OSQOQOCHA, DISTRITO DE ANCO, PROVINCIA DE LA MAR - AYACUCHO",PROGRAMA NACIONAL DE SANEAMIENTO RURAL,AYACUCHO,LA MAR,ANCO,50502,215,1303028.26,NÚCLEO EJECUTOR,OBRA,CERRADO,2016-09-12,2017-04-12,CERRADO,-13.09463999999997,-73.71118999999999
PNSR,245793,2178847,"MEJORAMIENTO Y AMPLIACION DEL SERVICIO DE AGUA POTABLE E INSTALACIÓN DE UNIDADES BASICAS DE SANEAMIENTO (UBS) EN LA LOCALIDAD DE HUATASOCOS, DISTRITO DE SAN MIGUEL, PROVINCIA DE LA MAR - AYACUCHO",PROGRAMA NACIONAL DE SANEAMIENTO RURAL,AYACUCHO,LA MAR,SAN MIGUEL,50501,270,1336697.92,NÚCLEO EJECUTOR,OBRA,CERRADO,2016-01-02,2016-08-28,CERRADO,-12.077999999999975,-77.09586999999993
PNSR,262463,2186348,"MEJORAMIENTO Y AMPLIACIÓN  DEL SERVICIO DE AGUA POTABLE E INSTALACION DE UNIDADES BASICAS DE SANEAMIENTO (UBS) EN LA LOCALIDAD DE CAJADELA, DISTRITO DE ANCO, PROVINCIA DE LA MAR Y REGIÓN AYACUCHO.",PROGRAMA NACIONAL DE SANEAMIENTO RURAL,AYACUCHO,LA MAR,ANCO,50502,224,1405141.83,NÚCLEO EJECUTOR,OBRA,CERRADO,2016-07-04,2017-03-31,CERRADO,-13.09463999999997,-73.71118999999999
PNSR,239090,2172739,MEJORAMIENTO Y AMPLIACIÓN DEL SERVICIO DE AGUA POTABLE E INSTALACIÓN DEL SANEAMIENTO BASICO DE LA LOCALIDAD DE ANTACANCHA CASTILLA – DISTRITO DE YAULI – HUANCAVELICA –HUANCAVELICA,PROGRAMA NACIONAL DE SANEAMIENTO RURAL,HUANCAVELICA,HUANCAVELICA,YAULI,90117,353,2027222.78,NÚCLEO EJECUTOR,OBRA,CERRADO,2016-05-16,2016-11-30,CERRADO,-12.736479999999972,-74.82304999999997
PNSR,240939,2178850,"INSTALACION DEL SERVICIO DE AGUA POTABLE Y SANEAMIENTO BASICO DE LA LOCALIDAD DE CHUNUNAPAMPA , DISTRITO DE YAULI - HUANCAVELICA - HUANCAVELICA",PROGRAMA NACIONAL DE SANEAMIENTO RURAL,HUANCAVELICA,HUANCAVELICA,YAULI,90117,616,1601649.42,NÚCLEO EJECUTOR,OBRA,CERRADO,2016-05-23,2017-04-11,CERRADO,-12.736479999999972,-74.82304999999997
PNSR,238928,2170988,"INSTALACION DEL SERVICIO DE AGUA POTABLE Y SANEAMIENTO BASICO DE LA LOCALIDAD DE SANTA ROSA DE PACHACCLLA , DISTRITO DE YAULI - HUANCAVELICA - HUANCAVELICA",PROGRAMA NACIONAL DE SANEAMIENTO RURAL,HUANCAVELICA,HUANCAVELICA,YAULI,90117,402,2273674.28,NÚCLEO EJECUTOR,OBRA,CERRADO,2016-05-16,2016-12-28,CERRADO,-12.736479999999972,-74.82304999999997
PNSR,241741,2185037,"AMPLIACION Y MEJORAMIENTO DEL SISTEMA DE AGUA E INSTALACION DE UNIDADES BASICAS DE SANEAMIENTO DE LA LOCALIDAD DE QUEUNAPAMPA , DISTRITO DE HAQUIRA - COTABAMBAS - APURIMAC",PROGRAMA NACIONAL DE SANEAMIENTO RURAL,APURIMAC,COTABAMBAS,HAQUIRA,30504,275,1385643.47,NÚCLEO EJECUTOR,OBRA,CERRADO,2016-05-02,2016-12-20,CERRADO,-14.212899999999934,-72.18955999999997
PNSR,255302,2178832,"MEJORAMIENTO Y AMPLIACIÓN DEL SERVICIO DE AGUA POTABLE E INSTALACIÓN DE UNIDADES BÁSICAS DE SANEAMIENTO (UBS) EN LA LOCALIDAD DE PUNQUI, DISTRITO DE ANCO, PROVINCIA DE LA MAR, DEPARTAMENTO AYACUCHO.",PROGRAMA NACIONAL DE SANEAMIENTO RURAL,AYACUCHO,LA MAR,ANCO,50502,295,1533630.47,NÚCLEO EJECUTOR,OBRA,CERRADO,2016-07-01,2017-03-03,CERRADO,-13.09463999999997,-73.71118999999999
PNSR,246465,2178843,"MEJORAMIENTO Y AMPLIACION DEL SISTEMA DE AGUA POTABLE E INSTALACION DE UNIDADES BASICAS  DE SANEAMIENTO (UBS) EN LA LOCALIDAD DE PAMPA HERMOSA, DISTRITO DE TAMBO, PROVINCIA DE LA MAR - AYACUCHO",PROGRAMA NACIONAL DE SANEAMIENTO RURAL,AYACUCHO,LA MAR,TAMBO,50508,252,1310983.97,NÚCLEO EJECUTOR,OBRA,CERRADO,2016-01-14,2016-08-15,CERRADO,-12.947729999999979,-74.01897999999994
PNSR,263911,2186347,"MEJORAMIENTO Y AMPLIACIÓN  DEL SERVICIO DE AGUA POTABLE E INSTALACION DE UNIDADES BASICAS DE SANEAMIENTO (UBS) EN LA LOCALIDAD DE PAMPA AURORA, DISTRITO DE ANCO, PROVINCIA DE LA MAR Y REGIÓN AYACUCHO",PROGRAMA NACIONAL DE SANEAMIENTO RURAL,AYACUCHO,LA MAR,ANCO,50502,235,1244158.07,NÚCLEO EJECUTOR,OBRA,CERRADO,2016-07-11,2017-04-30,CERRADO,-13.09463999999997,-73.71118999999999
PNSR,260075,2186349,"MEJORAMIENTO Y AMPLIACIÓN  DEL SERVICIO DE AGUA POTABLE E INSTALACION DE UNIDADES BASICAS DE SANEAMIENTO (UBS) EN LA LOCALIDAD DE SAN IGNACIO DE MAGAS, DISTRITO DE ANCO, PROVINCIA DE LA MAR - AYACUCHO",PROGRAMA NACIONAL DE SANEAMIENTO RURAL,AYACUCHO,LA MAR,ANCO,50502,252,1144542.93,NÚCLEO EJECUTOR,OBRA,CERRADO,2016-08-10,2017-02-25,CERRADO,-13.09463999999997,-73.71118999999999
PNSR,258893,2185030,MEJORAMIENTO Y AMPLIACION DEL SERVICIO DE AGUA POTABLE Y SANEAMIENTO DE LA COMUNIDAD DE LAYME - DISTRITO YANAOCA - PROVINCIA CANAS - REGIÓN CUSCO,PROGRAMA NACIONAL DE SANEAMIENTO RURAL,CUSCO,CANAS,YANAOCA,80501,205,1200852.55,NÚCLEO EJECUTOR,OBRA,CERRADO,2016-08-10,2017-02-15,CERRADO,-14.217759999999942,-71.43077999999997
PNSR,240474,2229560,INSTALACION DEL SERVICIO DE AGUA POTABLE Y SANEAMIENTO BASICO DEL BARRIO ERAPATA DEL CENTRO POBLADO DE CCASAPATA-DISTRITO YAULI-PROVINCIA HUANCAVELICA-REGION HUANCAVELICA,PROGRAMA NACIONAL DE SANEAMIENTO RURAL,HUANCAVELICA,ACOBAMBA,PAUCARA,90117,237,1356046.09,NÚCLEO EJECUTOR,OBRA,CERRADO,2016-07-01,2017-07-21,CERRADO,-12.728329999999971,-74.66644999999994
PNSR,244751,2170976,"INSTALACION DEL SERVICIO DE AGUA POTABLE Y SANEAMIENTO BASICO DE LA LOCALIDAD DE PARCCACANCHA , DISTRITO DE YAULI - HUANCAVELICA - HUANCAVELICA",PROGRAMA NACIONAL DE SANEAMIENTO RURAL,HUANCAVELICA,HUANCAVELICA,YAULI,90117,247,1294926.35,NÚCLEO EJECUTOR,OBRA,CERRADO,2016-07-01,2016-12-31,CERRADO,-12.736479999999972,-74.82304999999997
PNSR,252475,2172751,"MEJORAMIENTO Y AMPLIACIÓN DEL SERVICIO DE AGUA POTABLE Y SANEAMIENTO EN EL ANEXO DE VALLE VERDE DE LA COMUNIDAD DE LLALLAPARA,  DISTRITO YANAOCA, PROVINCIA CANAS, REGIÓN CUSCO",PROGRAMA NACIONAL DE SANEAMIENTO RURAL,CUSCO,CANAS,YANAOCA,80501,204,1798396.93,NÚCLEO EJECUTOR,OBRA,CERRADO,2016-09-29,2017-06-01,CERRADO,-14.217759999999942,-71.43077999999997
PNSR,245912,2172726,"MEJORAMIENTO Y AMPLIACIÓN DEL SERVICIO DE AGUA  POTABLE E INSTALACIÓN DE UNIDADES BÁSICAS DE SANEAMIENTO (UBS) EN LA LOCALIDAD DE TINYAS, DISTRITO DE TAMBO, PROVINCIA  DE LA MAR - AYACUCHO",PROGRAMA NACIONAL DE SANEAMIENTO RURAL,AYACUCHO,LA MAR,TAMBO,50508,235,1429791.24,NÚCLEO EJECUTOR,OBRA,CERRADO,2016-11-21,2017-06-21,CERRADO,-12.947729999999979,-74.01897999999994
PNSR,268682,2186342,MEJORAMIENTO Y AMPLIACIÓN DEL SERVICIO DE AGUA POTABLE E INSTALACIÓN DE UNIDADES BÁSICAS DE SANEAMIENTO (UBS) EN LA LOCALIDAD DE URAS DISTRITO DE SAN MIGUEL PROVINCIA DE LA MAR- AYACUCHO.,PROGRAMA NACIONAL DE SANEAMIENTO RURAL,AYACUCHO,LA MAR,SAN MIGUEL,50501,275,2285814.83,NÚCLEO EJECUTOR,OBRA,CERRADO,2016-11-14,2017-07-05,CERRADO,-12.077999999999975,-77.09586999999993
PNSR,252140,2178834,"MEJORAMIENTO Y AMPLIACIÓN DEL SERVICIO DE AGUA POTABLE E INSTALACIÓN DE UNIDADES BÁSICAS DE SANEAMIENTO (UBS) EN LA LOCALIDAD DE CHALLHUAMAYO BAJA, DISTRITO DE TAMBO, PROVINCIA  DE LA MAR - AYACUCHO",PROGRAMA NACIONAL DE SANEAMIENTO RURAL,AYACUCHO,LA MAR,TAMBO,50508,430,1977456.33,NÚCLEO EJECUTOR,OBRA,CERRADO,2016-11-07,2017-07-07,CERRADO,-12.947729999999979,-74.01897999999994
PNSR,258127,2189505,"INSTALACION DEL SERVICIO DE AGUA POTABLE Y DISPOSICIÓN SANITARIA DE EXCRETAS EN EL SECTOR NUEVA ESPERANZA DEL CENTRO POBLADO CHACCOCOLLO, DISTRITO DE KELLUYO - CHUCUITO - PUNO",PROGRAMA NACIONAL DE SANEAMIENTO RURAL,PUNO,CHUCUITO,KELLUYO,210404,197,1590143.48,NÚCLEO EJECUTOR,OBRA,POST EJECUCIÓN,2016-10-03,2018-04-11,ACTIVO,-16.58325999999994,-69.30713999999995
PNSR,251463,2183856,"INSTALACION DEL SERVICIO DE AGUA POTABLE Y DISPOSICIÓN SANITARIA DE EXCRETAS EN EL SECTOR HUALLPA DE LA COMUNIDAD CAMPESINA MAYCHU PHUJO, DISTRITO DE KELLUYO-CHUCUITO-PUNO",PROGRAMA NACIONAL DE SANEAMIENTO RURAL,PUNO,CHUCUITO,KELLUYO,210404,182,1399284.57,NÚCLEO EJECUTOR,OBRA,TRANSFERENCIA,2016-10-03,2017-09-05,ACTIVO,-16.58325999999994,-69.30713999999995
PNSR,249879,2189507,"INSTALACION DEL SERVICIO DE AGUA POTABLE Y DISPOSICIÓN SANITARIA DE EXCRETAS EN LA COMUNIDAD CAMPESINA  PILCO, EN LA PARCIALIDAD PAUCARANI ,  DISTRITO DE KELLUYO - CHUCUITO - PUNO",PROGRAMA NACIONAL DE SANEAMIENTO RURAL,PUNO,CHUCUITO,KELLUYO,210404,210,2157577.42,NÚCLEO EJECUTOR,OBRA,CONCLUIDO,2017-08-02,2018-07-25,ACTIVO,-16.58325999999994,-69.30713999999995
PNSR,268564,2189463,"INSTALACION DEL SERVICIO DE AGUA POTABLE Y DISPOSICIÓN SANITARIA DE EXCRETAS EN LA PARCIALIDAD PRIMER AYALA Y EL SECTOR WILACOLLO DE LA  COMUNIDAD CAMPESINA DE TOTOROMA, DISTRITO DE KELLUYO - CHUCUITO - PUNO",PROGRAMA NACIONAL DE SANEAMIENTO RURAL,PUNO,CHUCUITO,KELLUYO,210404,248,2255052.8,NÚCLEO EJECUTOR,OBRA,CONCLUIDO,2017-07-20,2019-03-23,ACTIVO,-16.58325999999994,-69.30713999999995
PNSR,296962,2302967,"MEJORAMIENTO Y AMPLIACIÓN DEL SERVICIO DE AGUA POTABLE Y CREACIÓN DEL SERVICIO DE DISPOSICIÓN SANITARIA DE EXCRETAS EN EL SECTOR BAJO COLLARIJO, CENTRO POBLADO YOROHOCO, DISTRITO DE HUACULLANI, PROVINCIA DE CHUCUITO, DEPARTAMENTO DE PUNO",PROGRAMA NACIONAL DE SANEAMIENTO RURAL,PUNO,CHUCUITO,HUACULLANI,210403,227,1734892.23,NÚCLEO EJECUTOR,OBRA,CONCLUIDO,2017-07-17,2018-04-27,ACTIVO,-16.592769999999973,-69.41174999999998
PNSR,240877,2170975,"INSTALACION DEL SERVICIO DE AGUA POTABLE Y SANEAMIENTO BASICO DE LA LOCALIDAD DE PANTACHI NORTE , DISTRITO DE YAULI - HUANCAVELICA - HUANCAVELICA",PROGRAMA NACIONAL DE SANEAMIENTO RURAL,HUANCAVELICA,HUANCAVELICA,YAULI,90117,427,1634869.54,NÚCLEO EJECUTOR,OBRA,CONCLUIDO,2017-07-17,2017-12-30,ACTIVO,-12.736479999999972,-74.82304999999997
PNSR,237662,2170946,"INSTALACION DEL SERVICIO DE AGUA POTABLE Y SANEAMIENTO BASICO DE LA LOCALIDAD DE ACHCAYACU , DISTRITO DE YAULI - HUANCAVELICA - HUANCAVELICA",PROGRAMA NACIONAL DE SANEAMIENTO RURAL,HUANCAVELICA,HUANCAVELICA,YAULI,90117,215,1352965.27,NÚCLEO EJECUTOR,OBRA,CERRADO,2017-07-05,2017-12-15,CERRADO,-12.736479999999972,-74.82304999999997
PNSR,258119,2189479,"MEJORAMIENTO Y AMPLIACIÓN DEL SERVICIO DE AGUA POTABLE Y DISPOSICIÓN SANITARIA DE EXCRETAS EN EL SECTOR ALTO PARCCO DE LA COMUNIDAD CAMPESINA DE PARCCO, DISTRITO DE ZEPITA  - CHUCUITO - PUNO",PROGRAMA NACIONAL DE SANEAMIENTO RURAL,PUNO,CHUCUITO,ZEPITA,210407,281,1998120.71,NÚCLEO EJECUTOR,OBRA,TRANSFERENCIA,2017-11-16,2018-06-14,ACTIVO,-16.49566999999996,-69.10429999999997
PNSR,238915,2170991,"INSTALACION DEL SERVICIO DE AGUA POTABLE Y SANEAMIENTO BASICO DE LA LOCALIDAD DE TOTORA , DISTRITO DE YAULI - HUANCAVELICA - HUANCAVELICA",PROGRAMA NACIONAL DE SANEAMIENTO RURAL,HUANCAVELICA,HUANCAVELICA,YAULI,90117,227,1669077.74,NÚCLEO EJECUTOR,OBRA,CONCLUIDO,2018-05-28,2018-11-20,ACTIVO,-12.736479999999972,-74.82304999999997
PNSR,257119,2189490,"MEJORAMIENTO Y AMPLIACION DE LOS  SERVICIOS DE AGUA POTABLE Y DISPOSICIÓN SANITARIA DE EXCRETAS DE LA OMUNIDAD CAMPESINA TITIHUE (SECTOR CENTRAL), DISTRITO DE HUANCANÉ, PROVINCIA DE HUANCANÉ, DEPARTAMENTO DE PUNO",PROGRAMA NACIONAL DE SANEAMIENTO RURAL,PUNO,HUANCANE,HUANCANE,210601,183,1823226.56,NÚCLEO EJECUTOR,OBRA,CERRADO,2015-10-21,2016-06-30,CERRADO,-15.200409999999977,-69.76316999999995
PNSR,267133,2192688,MEJORAMIENTO Y AMPLIACIÓN DEL SERVICIO DE AGUA POTABLE Y SANEAMIENTO EN EL BARRIO CHILLA CRUZ DE LA COMUNIDAD DE HERCCA - DISTRITO SICUANI- PROVINCIA CANCHIS - REGIÓN CUSCO,PROGRAMA NACIONAL DE SANEAMIENTO RURAL,CUSCO,CANCHIS,SICUANI,80601,337,1532012.52,NÚCLEO EJECUTOR,OBRA,CERRADO,2015-11-09,2016-07-18,CERRADO,-14.272689999999955,-71.23077999999998
PNSR,251104,2178836,"MEJORAMIENTO Y AMPLIACIÓN DEL SERVICIO DE AGUA POTABLE E INSTALACIÓN DE UNIDADES BÁSICAS DE SANEAMIENTO (UBS) EN LA LOCALIDAD DE MASINGA, DISTRITO DE TAMBO, PROVINCIA DE LA MAR - AYACUCHO",PROGRAMA NACIONAL DE SANEAMIENTO RURAL,AYACUCHO,LA MAR,TAMBO,50508,244,1271842.56,NÚCLEO EJECUTOR,OBRA,CERRADO,2016-01-02,2016-08-24,CERRADO,-12.947729999999979,-74.01897999999994
PNSR,245439,2172725,"MEJORAMIENTO Y AMPLIACIÓN DEL SERVICIO DE AGUA  POTABLE E INSTALACIÓN DE UNIDADES BÁSICAS DE SANEAMIENTO (UBS) EN LA LOCALIDAD DE MOYA, DISTRITO DE TAMBO, PROVINCIA  DE LA MAR - AYACUCHO",PROGRAMA NACIONAL DE SANEAMIENTO RURAL,AYACUCHO,LA MAR,TAMBO,50508,242,1322248.63,NÚCLEO EJECUTOR,OBRA,CERRADO,2016-01-02,2016-08-31,CERRADO,-12.947729999999979,-74.01897999999994
PNSR,249390,2168158,"AMPLIACION Y MEJORAMIENTO DEL SISTEMA DE AGUA E INSTALACION DE UNIDADES BASICAS DE SANEAMIENTO DE LA LOCALIDAD DE CHIHUARQUE , DISTRITO DE HUANCARAMA - ANDAHUAYLAS - APURIMAC",PROGRAMA NACIONAL DE SANEAMIENTO RURAL,APURIMAC,ANDAHUAYLAS,HUANCARAMA,30204,343,1708637.17,NÚCLEO EJECUTOR,OBRA,CERRADO,2016-04-04,2017-04-21,CERRADO,-13.66405999999995,-73.05418999999995
PNSR,249559,2168169,"AMPLIACION Y MEJORAMIENTO DEL SISTEMA DE AGUA E INSTALACION DE UNIDADES BASICAS DE SANEAMIENTO DE LA LOCALIDAD DE MATECLLA , DISTRITO DE HUANCARAMA - ANDAHUAYLAS - APURIMAC",PROGRAMA NACIONAL DE SANEAMIENTO RURAL,APURIMAC,ANDAHUAYLAS,HUANCARAMA,30204,265,1684278.04,NÚCLEO EJECUTOR,OBRA,CERRADO,2016-04-18,2016-12-29,CERRADO,-13.66405999999995,-73.05418999999995
PNSR,257100,2189487,"MEJORAMIENTO Y AMPLIACIÓN DEL SISTEMA DE AGUA POTABLE Y DISPOSICIÓN SANITARIA DE EXCRETAS  DE LA COMUNIDAD CAMPESINA DE AYMAHUI QUENARIRE, DISTRITO DE ACORA, PROVINCIA DE PUNO, DEPARTAMENTO PUNO",PROGRAMA NACIONAL DE SANEAMIENTO RURAL,PUNO,PUNO,ACORA,210102,363,2207208.38,NÚCLEO EJECUTOR,OBRA,CERRADO,2016-03-14,2016-10-11,CERRADO,-15.973859999999945,-69.79544999999996
PNSR,259770,2183848,"AMPLIACION Y MEJORAMIENTO DEL SISTEMA DE AGUA E INSTALACION DE UNIDADES BASICAS DE SANEAMIENTO DE LA LOCALIDAD DE PICHACA NAHUIPUCYO , DISTRITO DE TAMBOBAMBA - COTABAMBAS - APURIMAC",PROGRAMA NACIONAL DE SANEAMIENTO RURAL,APURIMAC,COTABAMBAS,TAMBOBAMBA,30501,476,2215237.37,NÚCLEO EJECUTOR,OBRA,CERRADO,2016-03-21,2017-05-21,CERRADO,-13.946899999999971,-72.17560999999995
PNSR,241736,2168170,"AMPLIACION Y MEJORAMIENTO DEL SISTEMA DE AGUA E INSTALACION DE UNIDADES BASICAS DE SANEAMIENTO DE LA LOCALIDAD DE MOCABAMBA , DISTRITO DE HAQUIRA - COTABAMBAS - APURIMAC",PROGRAMA NACIONAL DE SANEAMIENTO RURAL,APURIMAC,COTABAMBAS,HAQUIRA,30504,441,1776679.05,NÚCLEO EJECUTOR,OBRA,CERRADO,2016-04-04,2017-03-14,CERRADO,-14.212899999999934,-72.18955999999997
PNSR,247311,2178830,"MEJORAMIENTO Y AMPLIACIÓN DEL SERVICIO DE AGUA POTABLE E INSTALACIÓN DE UNIDADES BÁSICAS DE SANEAMIENTO (UBS) EN LA LOCALIDAD DE HUAYLLAHURA, DISTRITO DE ANCO, PROVINCIA DE LA MAR - AYACUCHO",PROGRAMA NACIONAL DE SANEAMIENTO RURAL,AYACUCHO,LA MAR,ANCO,50502,293,1469535.19,NÚCLEO EJECUTOR,OBRA,CERRADO,2016-11-07,2017-07-15,CERRADO,-13.09463999999997,-73.71118999999999
PNSR,245911,2172727,"MEJORAMIENTO Y AMPLIACIÓN DEL SERVICIO DE AGUA  POTABLE E INSTALACIÓN DE UNIDADES BÁSICAS DE SANEAMIENTO (UBS) EN LA LOCALIDAD DE VICOS, DISTRITO DE TAMBO, PROVINCIA  DE LA MAR - AYACUCHO",PROGRAMA NACIONAL DE SANEAMIENTO RURAL,AYACUCHO,LA MAR,TAMBO,50508,317,1604053.9,NÚCLEO EJECUTOR,OBRA,CERRADO,2016-01-02,2016-08-25,CERRADO,-12.947729999999979,-74.01897999999994
PNSR,259344,2185042,"MEJORAMIENTO Y AMPLIACIÓN  DEL SERVICIO DE AGUA POTABLE E INSTALACION DE UNIDADES BASICAS DE SANEAMIENTO (UBS) EN LA LOCALIDAD DE MEJORADA, DISTRITO DE ANCO, PROVINCIA DE LA MAR Y REGIÓN AYACUCHO.",PROGRAMA NACIONAL DE SANEAMIENTO RURAL,AYACUCHO,LA MAR,ANCO,50502,222,1217055.67,NÚCLEO EJECUTOR,OBRA,CERRADO,2016-08-10,2017-03-14,CERRADO,-13.09463999999997,-73.71118999999999
PNSR,252670,2185026,"MEJORAMIENTO Y AMPLIACION DEL SISTEMA DE AGUA POTABLE E INSTALACIÓN DE UNIDADES BÁSICAS DE SANEAMIENTO(UBS) EN LA LOCALIDAD DE PAQUICHARI, DISTRITO DE SAMUGARI, PROVINCIA DE LA MAR - AYACUCHO.",PROGRAMA NACIONAL DE SANEAMIENTO RURAL,AYACUCHO,LA MAR,SAN MIGUEL,50509,402,1881201.2,NÚCLEO EJECUTOR,OBRA,CERRADO,2016-07-04,2017-05-27,CERRADO,-12.077999999999975,-77.09586999999993
PNSR,246493,2171015,"INSTALACION DEL SISTEMA DE AGUA POTABLE Y DE UNIDADES BASICAS  DE  SANEAMIENTO (UBS) EN LA LOCALIDAD DE UNION CRISTAL, DISTRITO DE TAMBO, PROVINCIA DE LA MAR - AYACUCHO",PROGRAMA NACIONAL DE SANEAMIENTO RURAL,AYACUCHO,LA MAR,TAMBO,50508,201,1103251.5,NÚCLEO EJECUTOR,OBRA,CERRADO,2016-06-01,2017-01-21,CERRADO,-12.947729999999979,-74.01897999999994
PNSR,244530,2170967,INSTALACION DEL SERVICIO DE AGUA POTABLE Y SANEAMIENTO BASICO DE LA LOCALIDAD DE OCCERUMI– DISTRITO YAULI – PROVINCIA HUANCAVELICA – HUANCAVELICA,PROGRAMA NACIONAL DE SANEAMIENTO RURAL,HUANCAVELICA,HUANCAVELICA,YAULI,90117,364,1229846.35,NÚCLEO EJECUTOR,OBRA,CERRADO,2016-07-04,2017-11-30,CERRADO,-12.736479999999972,-74.82304999999997
PNSR,244400,2172750,MEJORAMIENTO Y AMPLIACION DEL SERVICIO DE AGUA POTABLE Y SANEAMIENTO EN EL ANEXO CARAHUAÑA DE LA COMUNIDAD DE HAMPATURA  - DISTRITO YANAOCA- PROVINCIA CANAS - REGIÓN CUSCO,PROGRAMA NACIONAL DE SANEAMIENTO RURAL,CUSCO,CANAS,YANAOCA,80501,199,1654561.31,NÚCLEO EJECUTOR,OBRA,CERRADO,2016-05-02,2016-11-30,CERRADO,-14.217759999999942,-71.43077999999997
PNSR,259216,2185033,"MEJORAMIENTO Y AMPLIACIÓN DEL SERVICIO DE AGUA POTABLE Y SANEAMIENTO EN EL ANEXO MARCAYRE DE LA COMUNIDAD DE HAMPATURA, DISTRITO YANAOCA, PROVINCIA CANAS, REGION CUSCO",PROGRAMA NACIONAL DE SANEAMIENTO RURAL,CUSCO,CANAS,YANAOCA,80501,204,1771443.22,NÚCLEO EJECUTOR,OBRA,CERRADO,2016-05-09,2016-11-05,CERRADO,-14.217759999999942,-71.43077999999997
PNSR,259337,2185029,MEJORAMIENTO Y AMPLIACIÓN DEL SERVICIO DE AGUA POTABLE Y SANEAMIENTO EN LA COMUNIDAD DE MACHACCOYO A - DISTRITO MACHACCOYO A- PROVINCIA CANAS - REGIÓN CUSCO,PROGRAMA NACIONAL DE SANEAMIENTO RURAL,CUSCO,CANAS,YANAOCA,80501,309,1735998.74,NÚCLEO EJECUTOR,OBRA,CERRADO,2016-05-16,2016-10-18,CERRADO,-14.217759999999942,-71.43077999999997
PNSR,265716,2186346,"MEJORAMIENTO Y AMPLIACIÓN DEL SERVICIO DE AGUA POTABLE E INSTALACION DE  UNIDADES BÁSICAS DE SANEAMIENTO (UBS) EN LA LOCALIDAD DE COCHAS ALTO, DISTRITO DE SAN MIGUEL, PROVINCIA DE LA MAR - AYACUCHO",PROGRAMA NACIONAL DE SANEAMIENTO RURAL,AYACUCHO,LA MAR,SAN MIGUEL,50501,198,1348231.28,NÚCLEO EJECUTOR,OBRA,CERRADO,2016-01-11,2016-10-31,CERRADO,-12.077999999999975,-77.09586999999993
PNSR,245917,2178848,"MEJORAMIENTO Y AMPLIACIÓN DEL SERVICIO DE AGUA POTABLE E INSTALACIÓN DE UNIDADES BÁSICAS DE SANEAMIENTO (UBS) EN LA LOCALIDAD DE LA VIRGEN ASUNCIÓN DE SUCA, DISTRITO DE SAN MIGUEL, PROVINCIA DE LA MAR -  AYACUCHO",PROGRAMA NACIONAL DE SANEAMIENTO RURAL,AYACUCHO,LA MAR,SAN MIGUEL,50501,364,1806622.06,NÚCLEO EJECUTOR,OBRA,CERRADO,2016-01-11,2016-11-05,CERRADO,-12.077999999999975,-77.09586999999993
PNSR,248626,2178846,"MEJORAMIENTO Y AMPLIACION DEL SERVICIO DE AGUA POTABLE E INSTALACION DE UNIDADES BASICAS DE SANEAMIENTO (UBS) EN LA LOCALIDAD DE INCARAQAY, DISTRITO DE SAN MIGUEL, PROVINCIA DE LA MAR - AYACUCHO",PROGRAMA NACIONAL DE SANEAMIENTO RURAL,AYACUCHO,LA MAR,SAN MIGUEL,50501,183,1307645.37,NÚCLEO EJECUTOR,OBRA,CERRADO,2016-06-01,2017-03-10,CERRADO,-12.077999999999975,-77.09586999999993
PNSR,263890,2185046,"MEJORAMIENTO Y AMPLIACION DEL SERVICIO DE AGUA POTABLE E INSTALACION DE UNIDADES BASICAS DE SANEAMIENTO (UBS) EN LA LOCALIDAD CHORROBAMBA DISTRITO DE SAN MIGUEL,  PROVINCIA LA MAR -AYACUCHO",PROGRAMA NACIONAL DE SANEAMIENTO RURAL,AYACUCHO,LA MAR,SAN MIGUEL,50501,224,1120926.21,NÚCLEO EJECUTOR,OBRA,CERRADO,2016-06-09,2016-11-30,CERRADO,-12.077999999999975,-77.09586999999993
PNSR,255398,2178829,"MEJORAMIENTO Y AMPLIACIÓN DEL SERVICIO DE AGUA POTABLE Y SANEAMIENTO DE LOS ANEXOS DE QUILLIHUARA Y KACUORCCO,  DISTRITO TINTA, PROVINCIA CANCHIS, REGIÓN CUSCO",PROGRAMA NACIONAL DE SANEAMIENTO RURAL,CUSCO,CANCHIS,TINTA,80608,231,1923101.17,NÚCLEO EJECUTOR,OBRA,CERRADO,2015-11-05,2016-11-07,CERRADO,-14.111969999999928,-71.41885999999994
PNSR,245086,2172723,"MEJORAMIENTO Y AMPLIACIÓN DEL SERVICIO DE AGUA  POTABLE E INSTALACION DE UNIDADES BÁSICAS DE SANEAMIENTO (UBS) EN LA LOCALIDAD DE CCOLLCCINA, DISTRITO DE TAMBO, PROVINCIA DE LA MAR - AYACUCHO",PROGRAMA NACIONAL DE SANEAMIENTO RURAL,AYACUCHO,LA MAR,TAMBO,50508,192,1052475.16,NÚCLEO EJECUTOR,OBRA,CERRADO,2016-01-02,2016-10-12,CERRADO,-12.947729999999979,-74.01897999999994
PNSR,246466,2178838,"MEJORAMIENTO Y AMPLIACION DEL SISTEMA DE AGUA POTABLE E INSTALACION DE UNIDADES BÁSICAS DE SANEAMIENTO (UBS) EN LA LOCALIDAD DE CCESCCE, DISTRITO DE TAMBO, PROVINCIA DE LA MAR - AYACUCHO",PROGRAMA NACIONAL DE SANEAMIENTO RURAL,AYACUCHO,LA MAR,TAMBO,50508,249,1040559.3,NÚCLEO EJECUTOR,OBRA,CERRADO,2016-01-04,2016-08-26,CERRADO,-12.947729999999979,-74.01897999999994
PNSR,253824,2185039,MEJORAMIENTO Y AMPLIACION DEL SERVICIO DE AGUA POTABLE Y SANEAMIENTO EN EL ANEXO CHORACCA DE LA COMUNIDAD DE SAN JUAN - DISTRITO POMACANCHI - PROVINCIA ACOMAYO - REGIÓN CUSCO,PROGRAMA NACIONAL DE SANEAMIENTO RURAL,CUSCO,ACOMAYO,POMACANCHI,80205,205,1454053.34,NÚCLEO EJECUTOR,OBRA,CERRADO,2015-11-08,2016-11-03,CERRADO,-13.996739999999932,-71.56320999999997
PNSR,240594,2186036,"MEJORAMIENTO, AMPLIACION DE LOS SERVICIOS DE AGUA POTABLE Y DISPOSICIÓN DE EXCRETAS DE LA COMUNIDAD CAMPESINA DE HUAYCHANI, DISTRITO DE ACORA, PROVINCIA DE PUNO, DEPARTAMENTO DE PUNO",PROGRAMA NACIONAL DE SANEAMIENTO RURAL,PUNO,PUNO,ACORA,210102,356,2099281.56,NÚCLEO EJECUTOR,OBRA,CERRADO,2016-03-28,2016-11-14,CERRADO,-15.973859999999945,-69.79544999999996
PNSR,252282,2183862,"MEJORAMIENTO Y AMPLIACIÓN DE LOS SERVICIOS DE AGUA POTABLE Y DISPOSICIÓN SANITARIA DE EXCRETAS  DE LA COMUNIDAD CAMPESINA DE JACHA HUINCHOCA, CENTRO  POBLADO INCASAMAWI, DISTRITO DE ACORA, PUNO - PUNO",PROGRAMA NACIONAL DE SANEAMIENTO RURAL,PUNO,PUNO,ACORA,210102,412,2416000.87,NÚCLEO EJECUTOR,OBRA,CERRADO,2016-04-04,2016-11-29,CERRADO,-15.973859999999945,-69.79544999999996
PNSR,245836,2172736,"MEJORAMIENTO Y AMPLIACIÓN DEL SERVICIO DE AGUA POTABLE E INSTALACION DE UNIDADES BÁSICAS DE SANEAMIENTO (UBS) EN LA LOCALIDAD DE CHOCCACANCHA, DISTRITO DE SAN MIGUEL, PROVINCIA DE LA MAR - AYACUCHO",PROGRAMA NACIONAL DE SANEAMIENTO RURAL,AYACUCHO,LA MAR,SAN MIGUEL,50501,309,1710603.2,NÚCLEO EJECUTOR,OBRA,CERRADO,2016-01-11,2016-09-20,CERRADO,-12.077999999999975,-77.09586999999993
PNSR,262455,2185049,"MEJORAMIENTO Y AMPLIACIÓN DEL SERVICIO DE AGUA  POTABLE E INSTALACIÓN DE UNIDADES BÁSICAS DE SANEAMIENTO (UBS) EN LA LOCALIDAD DE QEQRA, DISTRITO DE TAMBO, PROVINCIA  DE LA MAR - AYACUCHO.",PROGRAMA NACIONAL DE SANEAMIENTO RURAL,AYACUCHO,LA MAR,TAMBO,50508,206,1253511.61,NÚCLEO EJECUTOR,OBRA,CERRADO,2016-01-02,2016-08-24,CERRADO,-12.947729999999979,-74.01897999999994
PNSR,248612,2172735,"MEJORAMIENTO Y AMPLIACIÓN DEL SERVICIO DE AGUA POTABLE E INSTALACION DE UNIDADES BÁSICAS DE SANEAMIENTO (UBS) EN LA LOCALIDAD DE ANYAY, DISTRITO DE ANCO, PROVINCIA DE LA MAR - AYACUCHO",PROGRAMA NACIONAL DE SANEAMIENTO RURAL,AYACUCHO,LA MAR,ANCO,50502,254,1444341.94,NÚCLEO EJECUTOR,OBRA,CERRADO,2016-07-04,2017-01-30,CERRADO,-13.09463999999997,-73.71118999999999
PNSR,247309,2172738,"MEJORAMIENTO Y AMPLIACION DEL SERVICIO DE AGUA POTABLE E INSTALACIÓN DE UNIDADES BASICAS DE SANEAMIENTO (UBS) LA LOCALIDAD DE PACOBAMBA, DISTRITO DE ANCO, PROVINCIA DE LA MAR - AYACUCHO",PROGRAMA NACIONAL DE SANEAMIENTO RURAL,AYACUCHO,LA MAR,ANCO,50502,248,1828529.64,NÚCLEO EJECUTOR,OBRA,CERRADO,2016-08-03,2017-02-24,CERRADO,-13.09463999999997,-73.71118999999999
PNSR,251948,2172758,"MEJORAMIENTO Y AMPLIACIÓN DEL SERVICIO DE AGUA POTABLE Y SANEAMIENTO EN LOS ANEXOS DE KISICUCHO, WASI WASI Y HOYOHOYO DE LA COMUNIDAD DE LLALLAPARA,  DISTRITO YANAOCA, PROVINCIA CANAS, REGIÓN CUSCO",PROGRAMA NACIONAL DE SANEAMIENTO RURAL,CUSCO,CANAS,YANAOCA,80501,320,2140614.59,NÚCLEO EJECUTOR,OBRA,CERRADO,2016-09-30,2017-05-26,CERRADO,-14.217759999999942,-71.43077999999997
PNSR,258254,2178828,"MEJORAMIENTO Y AMPLIACION DEL SERVICIO DE AGUA POTABLE Y SANEAMIENTO EN LOS SECTORES DE ARENAL PAMPA, ALTO MIRADOR, NUEVO AMANECER Y CALLANCANI DE LA COMUNIDAD DE YANAOCA - DISTRITO DE YANAOCA - PROVINCIA DE CANAS - REGIÓN CUSCO",PROGRAMA NACIONAL DE SANEAMIENTO RURAL,CUSCO,CANAS,YANAOCA,80501,211,1282351.68,NÚCLEO EJECUTOR,OBRA,CERRADO,2016-09-28,2017-05-05,CERRADO,-14.217759999999942,-71.43077999999997
PNSR,261048,2185045,"MEJORAMIENTO Y AMPLIACION DEL SERVICIO DE AGUA POTABLE E INSTALACION DE UNIDADES BASICAS DE SANEAMIENTO (UBS) EN LA LOCALIDAD DE BARBECHO DISTRITO DE SAN MIGUEL, PROVINCIA LA MAR -AYACUCHO",PROGRAMA NACIONAL DE SANEAMIENTO RURAL,AYACUCHO,LA MAR,SAN MIGUEL,50501,230,1202355.8,NÚCLEO EJECUTOR,OBRA,CERRADO,2016-11-02,2017-05-31,CERRADO,-12.077999999999975,-77.09586999999993
PNSR,252542,2185044,"MEJORAMIENTO Y AMPLIACIÓN DEL SERVICIO DE AGUA POTABLE E INSTALACIÓN DE UNIDADES BÁSICAS DE SANEAMIENTO (UBS) EN LA LOCALIDAD DE UNIÓN VISTA ALEGRE, DISTRITO DE SAMUGARI, PROVINCIA DE LA MAR - AYACUCHO",PROGRAMA NACIONAL DE SANEAMIENTO RURAL,AYACUCHO,LA MAR,SAMUGARI,50509,306,1626452.03,NÚCLEO EJECUTOR,OBRA,CERRADO,2016-11-14,2017-07-07,CERRADO,-12.86024999999995,-73.72073999999998
PNSR,258136,2189497,"INSTALACION DEL SERVICIO DE AGUA POTABLE Y DISPOSICIÓN SANITARIA DE EXCRETAS EN EL SECTOR MITA DE LA COMUNIDAD CAMPESINA DE TULACOLLO, DISTRITO DE KELLUYO - CHUCUITO - PUNO",PROGRAMA NACIONAL DE SANEAMIENTO RURAL,PUNO,CHUCUITO,KELLUYO,210404,187,1981295.24,NÚCLEO EJECUTOR,OBRA,TRANSFERENCIA,2016-10-12,2017-11-24,ACTIVO,-16.58325999999994,-69.30713999999995
PNSR,257926,2189339,"MEJORAMIENTO Y AMPLIACIÓN DE LOS SERVICIOS DE AGUA POTABLE Y DISPOSICIÓN SANITARIA DE EXCRETAS EN LOS SECTORES CHOCCÑAPAMPA PARTE ALTA, PAMPA HUTA Y CALACOTA PARTE SUR, DE LA COMUNIDAD CAMPESINA HUAPACA SANTIAGO, DISTRITO POMATA - CHUCUITO - PUNO",PROGRAMA NACIONAL DE SANEAMIENTO RURAL,PUNO,CHUCUITO,POMATA,210406,304,2056873.24,NÚCLEO EJECUTOR,OBRA,TRANSFERENCIA,2016-10-03,2017-09-04,ACTIVO,-16.27383999999995,-69.29377999999997
PNSR,241752,2168178,"AMPLIACION Y MEJORAMIENTO DEL SISTEMA DE AGUA E INSTALACION DE UNIDADES BASICAS DE SANEAMIENTO DE LA LOCALIDAD DE SAYWITE ALTO , DISTRITO DE CURAHUASI - ABANCAY - APURIMAC",PROGRAMA NACIONAL DE SANEAMIENTO RURAL,APURIMAC,ABANCAY,CURAHUASI,30104,354,1493032.96,NÚCLEO EJECUTOR,OBRA,CERRADO,2016-11-03,2017-08-31,CERRADO,-13.540369999999939,-72.69667999999996
PNSR,247304,2178844,"INSTALACION DEL SISTEMA DE AGUA POTABLE Y DE UNIDADES BASICAS DE SANEAMIENTO (UBS) EN LA LOCALIDAD DE BALCON, DISTRITO DE TAMBO, PROVINCIA DE LA MAR - AYACUCHO",PROGRAMA NACIONAL DE SANEAMIENTO RURAL,AYACUCHO,LA MAR,TAMBO,50508,323,1582886.39,NÚCLEO EJECUTOR,OBRA,CERRADO,2016-11-14,2017-06-21,CERRADO,-12.947729999999979,-74.01897999999994
PNSR,259822,2189493,"MEJORAMIENTO Y AMPLIACIÓN DE LOS SERVICIOS DE AGUA POTABLE Y DISPOSICIÓN SANITARIA DE EXCRETAS EN LOS SECTORES TRES DE AGOSTO Y CHOJÑACOLLO DE LA COMUNIDAD CAMPESINA LACALACA, DISTRITO  HUACULLANI - CHUCUITO  - PUNO",PROGRAMA NACIONAL DE SANEAMIENTO RURAL,PUNO,CHUCUITO,HUACULLANI,210403,240,2421749.0,NÚCLEO EJECUTOR,OBRA,TRANSFERENCIA,2016-10-17,2017-08-25,ACTIVO,-16.592769999999973,-69.41174999999998
PNSR,245915,2178852,"INSTALACION DEL SISTEMA DE AGUA POTABLE Y UNIDADES BASICAS DE SANEAMIENTO (UBS) EN LA LOCALIDAD DE TANTACCOCHA, DISTRITO DE TAMBO, PROVINCIA LA MAR - AYACUCHO",PROGRAMA NACIONAL DE SANEAMIENTO RURAL,AYACUCHO,LA MAR,TAMBO,50508,247,986616.85,NÚCLEO EJECUTOR,OBRA,CERRADO,2016-09-05,2017-04-20,CERRADO,-12.947729999999979,-74.01897999999994
PNSR,246738,2172753,"MEJORAMIENTO Y AMPLIACIÓN DEL SERVICIO DE AGUA POTABLE Y SANEAMIENTO EN EL ANEXO PAROMANI DE LA COMUNIDAD DE CHICNAYHUA,  DISTRITO YANAOCA, PROVINCIA CANAS, REGIÓN CUSCO",PROGRAMA NACIONAL DE SANEAMIENTO RURAL,CUSCO,CANAS,YANAOCA,80501,200,1503930.09,NÚCLEO EJECUTOR,OBRA,CONCLUIDO,2016-09-29,2017-05-12,ACTIVO,-14.217759999999942,-71.43077999999997
PNSR,267014,2190264,"MEJORAMIENTO Y AMPLIACIÓN DEL SERVICIO DE AGUA POTABLE E INSTALACION DE  UNIDADES BÁSICAS DE SANEAMIENTO (UBS) EN LA LOCALIDAD DE COCHAS, DISTRITO DE SAN MIGUEL, PROVINCIA DE LA MAR - AYACUCHO.",PROGRAMA NACIONAL DE SANEAMIENTO RURAL,AYACUCHO,LA MAR,SAN MIGUEL,50501,357,2121229.11,NÚCLEO EJECUTOR,OBRA,CERRADO,2016-11-14,2017-06-14,CERRADO,-12.077999999999975,-77.09586999999993
PNSR,259834,2189494,"MEJORAMIENTO Y AMPLIACIÓN DE LOS SERVICIOS DE AGUA POTABLE Y DISPOSICIÓN SANITARIA DE EXCRETAS DE LA COMUNIDAD CAMPESINA DE LACAHAQUI, DISTRITO  HUACULLANI - CHUCUITO  - PUNO",PROGRAMA NACIONAL DE SANEAMIENTO RURAL,PUNO,CHUCUITO,HUACULLANI,210403,250,2250158.38,NÚCLEO EJECUTOR,OBRA,CONCLUIDO,2016-11-21,2018-01-31,ACTIVO,-16.592769999999973,-69.41174999999998
PNSR,257056,2189492,"MEJORAMIENTO Y AMPLIACIÓN DE LOS SERVICIOS DE AGUA POTABLE Y DISPOSICIÓN SANITARIA DE EXCRETAS DE LA PARCIALIDAD DE PIATA, CENTRO POBLADO DE SAN PEDRO DE HUARISANI, DISTRITO DE HUANCANE, HUANCANE-PUNO",PROGRAMA NACIONAL DE SANEAMIENTO RURAL,PUNO,HUANCANE,HUANCANE,210601,289,1712994.45,NÚCLEO EJECUTOR,OBRA,TRANSFERENCIA,2016-10-03,2017-05-23,ACTIVO,-15.200409999999977,-69.76316999999995
PNSR,244772,2170951,"INSTALACION DEL SERVICIO DE AGUA POTABLE Y SANEAMIENTO BASICO DE LA LOCALIDAD DE CCERONCANCHA , DISTRITO DE YAULI - HUANCAVELICA - HUANCAVELICA",PROGRAMA NACIONAL DE SANEAMIENTO RURAL,HUANCAVELICA,HUANCAVELICA,YAULI,90117,214,1309331.06,NÚCLEO EJECUTOR,OBRA,CONCLUIDO,2017-06-05,2017-12-21,ACTIVO,-12.736479999999972,-74.82304999999997
PNSR,259853,2189459,"INSTALACION DE SERVICIOS DE AGUA POTABLE Y DISPOSICIÓN SANITARIA DE EXCRETAS EN EL SECTOR CHURA DE LA COMUNIDAD CAMPESINA JOVEN SAN JUAN DE ARACACHI, DISTRITO DE KELLUYO - CHUCUITO - PUNO",PROGRAMA NACIONAL DE SANEAMIENTO RURAL,PUNO,CHUCUITO,KELLUYO,210404,309,2267736.38,NÚCLEO EJECUTOR,OBRA,CONCLUIDO,2017-09-04,2018-09-08,ACTIVO,-16.58325999999994,-69.30713999999995
PNSR,259876,2189464,"MEJORAMIENTO Y AMPLIACIÓN DEL SERVICIO DE AGUA POTABLE Y DISPOSICIÓN SANITARIA DE EXCRETAS EN LA COMUNIDAD CAMPESINA CARIQUE CHALLACOLLO,  DISTRITO KELLUYO - CHUCUITO - PUNO",PROGRAMA NACIONAL DE SANEAMIENTO RURAL,PUNO,CHUCUITO,KELLUYO,210404,272,1727295.74,NÚCLEO EJECUTOR,OBRA,TRANSFERENCIA,2017-07-17,2018-06-20,ACTIVO,-16.58325999999994,-69.30713999999995
PNSR,260772,2189461,"INSTALACION DEL SERVICIO DE AGUA POTABLE Y DISPOSICIÓN SANITARIA DE EXCRETAS EN LOS SECTORES WILAQUE Y PICHACOLLO DE LA COMUNIDAD CAMPESINA TULACOLLO, DISTRITO DE KELLUYO - CHUCUITO - PUNO",PROGRAMA NACIONAL DE SANEAMIENTO RURAL,PUNO,CHUCUITO,KELLUYO,210404,195,2078710.59,NÚCLEO EJECUTOR,OBRA,TRANSFERENCIA,2017-08-02,2018-04-27,ACTIVO,-16.58325999999994,-69.30713999999995
PNSR,253351,2189491,"MEJORAMIENTO Y AMPLIACIÓN DE LOS SERVICIOS DE AGUA POTABLE Y DISPOSICIÓN SANITARIA DE EXCRETAS DE LA PARCIALIDAD DE JONSANI, CENTRO POBLADO DE SAN PEDRO DE HUARISANI, DISTRITO DE HUANCANE, HUANCANE-PUNO",PROGRAMA NACIONAL DE SANEAMIENTO RURAL,PUNO,HUANCANE,HUANCANE,210601,413,2075509.73,NÚCLEO EJECUTOR,OBRA,CONCLUIDO,2017-08-03,2018-11-17,ACTIVO,-15.200409999999977,-69.76316999999995
PNSR,238467,2170997,"INSTALACION DEL SERVICIO DE AGUA POTABLE Y SANEAMIENTO BASICO DE LA LOCALIDAD DE WISAPUQUIO , DISTRITO DE YAULI - HUANCAVELICA - HUANCAVELICA",PROGRAMA NACIONAL DE SANEAMIENTO RURAL,HUANCAVELICA,HUANCAVELICA,YAULI,90117,297,1450503.93,NÚCLEO EJECUTOR,OBRA,CONCLUIDO,2017-08-03,2017-12-26,ACTIVO,-12.736479999999972,-74.82304999999997
PNSR,251432,2191200,"INSTALACION DEL SERVICIO DE AGUA POTABLE Y DISPOSICIÓN SANITARIA DE EXCRETAS EN EL SECTOR CHACCOCOLLO PUEBLO URBANO DEL CENTRO POBLADO CHACCOCOLLO, DISTRITO DE KELLUYO - CHUCUITO - PUNO",PROGRAMA NACIONAL DE SANEAMIENTO RURAL,PUNO,CHUCUITO,KELLUYO,210404,345,2310720.13,NÚCLEO EJECUTOR,OBRA,CONCLUIDO,2016-10-06,2018-04-30,ACTIVO,-16.58325999999994,-69.30713999999995
PNSR,249284,2183851,"INSTALACION DEL SERVICIO DE AGUA POTABLE Y DISPOSICIÓN SANITARIA DE EXCRETAS EN EL SECTOR SANCAYCOLLO, COMUNIDAD CAMPESINA CHALLACOLLO, DISTRITO HUACULLANI - CHUCUITO - PUNO",PROGRAMA NACIONAL DE SANEAMIENTO RURAL,PUNO,CHUCUITO,HUACULLANI,210403,182,1489868.59,NÚCLEO EJECUTOR,OBRA,TRANSFERENCIA,2016-10-17,2017-12-11,ACTIVO,-16.592769999999973,-69.41174999999998
PNSR,251533,2189481,"MEJORAMIENTO Y AMPLIACIÓN DEL SERVICIO DE AGUA POTABLE Y DISPOSICIÓN SANITARIA DE EXCRETAS EN EL SECTOR KENTURANI DE LA COMUNIDAD CAMPESINA CHALLACOLLO, DISTRITO HUACULLANI - CHUCUITO - PUNO",PROGRAMA NACIONAL DE SANEAMIENTO RURAL,PUNO,CHUCUITO,HUACULLANI,210403,340,2196766.38,NÚCLEO EJECUTOR,OBRA,CONCLUIDO,2016-10-26,2018-06-22,ACTIVO,-16.592769999999973,-69.41174999999998
PNSR,257933,2189504,"MEJORAMIENTO DEL SERVICIO DE AGUA POTABLE Y DISPOSICIÓN SANITARIA DE EXCRETAS EN EL SECTOR ALTO ALIANZA DE LA COMUNIDAD CAMPESINA  CHACCOCOLLO, DISTRITO DE KELLUYO - CHUCUITO - PUNO",PROGRAMA NACIONAL DE SANEAMIENTO RURAL,PUNO,CHUCUITO,KELLUYO,210404,222,1961755.53,NÚCLEO EJECUTOR,OBRA,POST EJECUCIÓN,2016-12-05,2018-07-31,ACTIVO,-16.58325999999994,-69.30713999999995
PNSR,252485,2172752,"MEJORAMIENTO Y AMPLIACIÓN DEL SERVICIO DE AGUA POTABLE Y SANEAMIENTO EN EL ANEXO JANANSAYA DE LA COMUNIDAD CCOLLANA,  DISTRITO QUEHUE, PROVINCIA CANAS, REGIÓN CUSCO",PROGRAMA NACIONAL DE SANEAMIENTO RURAL,CUSCO,CANAS,QUEHUE,80507,204,2051365.48,NÚCLEO EJECUTOR,OBRA,CERRADO,2017-02-06,2017-09-08,CERRADO,-14.35111999999998,-71.44931999999994
PNSR,260710,2189456,"MEJORAMIENTO Y AMPLIACIÓN DEL SERVICIO DE AGUA POTABLE Y DISPOSICIÓN SANITARIA DE EXCRETAS EN EL SECTOR HUAYCULLO DE LA COMUNIDAD CAMPESINA JAQUEHUAYTAHUI, DISTRITO POMATA - CHUCUITO - PUNO",PROGRAMA NACIONAL DE SANEAMIENTO RURAL,PUNO,CHUCUITO,POMATA,210406,254,1693285.84,NÚCLEO EJECUTOR,OBRA,TRANSFERENCIA,2016-10-03,2017-09-08,ACTIVO,-16.27383999999995,-69.29377999999997
PNSR,258145,2189484,"MEJORAMIENTO Y AMPLIACIÓN DEL SERVICIO DE AGUA POTABLE Y DISPOSICIÓN SANITARIA DE EXCRETAS EN LAS PARCIALIDADES VAQUERIA Y BUENA VISTA, DISTRITO HUACULLANI - CHUCUITO - PUNO",PROGRAMA NACIONAL DE SANEAMIENTO RURAL,PUNO,CHUCUITO,HUACULLANI,210403,228,1919320.92,NÚCLEO EJECUTOR,OBRA,CONCLUIDO,2016-10-03,2017-11-06,ACTIVO,-16.592769999999973,-69.41174999999998
PNSR,259817,2189447,"AMPLIACION Y MEJORAMIENTO DEL SERVICIO DE AGUA POTABLE Y DISPOSICIÓN SANITARIA DE EXCRETAS EXCRETAS EN EL SECTOR CENTRAL DE LA COMUNIDAD CAMPESINA CHALLACOLLO, DISTRITO HUACULLANI - CHUCUITO - PUNO",PROGRAMA NACIONAL DE SANEAMIENTO RURAL,PUNO,CHUCUITO,HUACULLANI,210403,212,1594125.12,NÚCLEO EJECUTOR,OBRA,CERRADO,2016-11-14,2017-08-29,CERRADO,-16.592769999999973,-69.41174999999998
PNSR,255565,2186343,"MEJORAMIENTO Y AMPLIACIÓN DEL SERVICIO DE AGUA  POTABLE E INSTALACIÓN DE UNIDADES BÁSICAS DE SANEAMIENTO (UBS) EN LA LOCALIDAD DE NUEVA UNIÓN TOMARENCCA, DISTRITO DE TAMBO, PROVINCIA  DE LA MAR – AYACUCHO",PROGRAMA NACIONAL DE SANEAMIENTO RURAL,AYACUCHO,LA MAR,TAMBO,50508,190,1036914.31,NÚCLEO EJECUTOR,OBRA,CERRADO,2017-01-02,2017-06-30,CERRADO,-12.947729999999979,-74.01897999999994
PNSR,261397,2189460,"INSTALACION MEJORAMIENTO Y AMPLIACIÓN DE SERVICIOS DE AGUA POTABLE Y DISPOSICIÓN SANITARIA DE EXCRETAS EN LA PARCIALIDAD CHOCOTA DEL CENTRO POBLADO ARCOMUNA Y EN EL SECTOR JACHA KELLUYO 2 DE LA COMUNIDAD CAMPESINA ALTO ARACACHI KELLUYO, DISTRITO DE KELLUYO - CHUCUITO - PUNO",PROGRAMA NACIONAL DE SANEAMIENTO RURAL,PUNO,CHUCUITO,KELLUYO,210404,312,2296960.78,NÚCLEO EJECUTOR,OBRA,CONCLUIDO,2017-08-14,2018-08-31,ACTIVO,-16.58325999999994,-69.30713999999995
PNSR,251516,2183852,"INSTALACION DEL SERVICIO DE AGUA POTABLE Y DISPOSICIÓN SANITARIA DE EXCRETAS EN LA COMUNIDAD CAMPESINA IRUJANI, DISTRITO POMATA - CHUCUITO - PUNO",PROGRAMA NACIONAL DE SANEAMIENTO RURAL,PUNO,CHUCUITO,POMATA,210406,253,2199718.73,NÚCLEO EJECUTOR,OBRA,CONCLUIDO,2017-09-13,2018-07-23,ACTIVO,-16.27383999999995,-69.29377999999997
PNSR,261926,2185031,MEJORAMIENTO Y AMPLIACIÓN DEL SERVICIO DE AGUA POTABLE Y SANEAMIENTO EN EL ANEXO CCANCCAYLLO Y JAYO JAYO DE LA COMUNIDAD DE CHICNAYHUA  - DISTRITO YANAOCA- PROVINCIA CANAS - REGIÓN CUSCO,PROGRAMA NACIONAL DE SANEAMIENTO RURAL,CUSCO,CANAS,YANAOCA,80501,211,1587915.03,NÚCLEO EJECUTOR,OBRA,CERRADO,2016-09-29,2017-09-22,CERRADO,-14.217759999999942,-71.43077999999997
PNSR,251548,2189334,"MEJORAMIENTO Y AMPLIACION DEL SERVICIO DE AGUA POTABLE Y DISPOSCIÓN SANITARIA DE EXCRETAS EN LA PARCIALIDAD CANGACHI, DISTRITO DE HUACULLANI - CHUCUITO - PUNO",PROGRAMA NACIONAL DE SANEAMIENTO RURAL,PUNO,CHUCUITO,HUACULLANI,210403,188,2055683.84,NÚCLEO EJECUTOR,OBRA,CONCLUIDO,2016-10-26,2017-08-22,ACTIVO,-16.592769999999973,-69.41174999999998
PNSR,251435,2189485,"MEJORAMIENTO Y AMPLIACIÓN DEL SERVICIO DE AGUA POTABLE Y DISPOSICIÓN SANITARIA DE EXCRETAS EN LOS SECTORES CENEPA Y PUCARA DE LA COMUNIDAD CAMPESINA LACALACA, DISTRITO HUACULLANI - CHUCUITO - PUNO",PROGRAMA NACIONAL DE SANEAMIENTO RURAL,PUNO,CHUCUITO,HUACULLANI,210403,253,2000330.05,NÚCLEO EJECUTOR,OBRA,TRANSFERENCIA,2016-10-03,2017-10-13,ACTIVO,-16.592769999999973,-69.41174999999998
PNSR,249898,2189338,"MEJORAMIENTO Y AMPLIACIÓN DEL SERVICIO DE AGUA POTABLE Y DISPOSCIÓN SANITARIA DE EXCRETAS EN LA PARCIALIDAD ANCOHAQUI, DISTRITO DE HUACULLANI - CHUCUITO - PUNO",PROGRAMA NACIONAL DE SANEAMIENTO RURAL,PUNO,CHUCUITO,HUACULLANI,210403,195,1642166.59,NÚCLEO EJECUTOR,OBRA,TRANSFERENCIA,2016-10-17,2017-10-13,ACTIVO,-16.592769999999973,-69.41174999999998
PNSR,242147,2170959,"INSTALACION DEL SERVICIO DE AGUA POTABLE Y SANEAMIENTO BASICO DE LA LOCALIDAD DE IZCUMACHAY , DISTRITO DE YAULI - HUANCAVELICA - HUANCAVELICA",PROGRAMA NACIONAL DE SANEAMIENTO RURAL,HUANCAVELICA,HUANCAVELICA,YAULI,90117,382,1383482.92,NÚCLEO EJECUTOR,OBRA,CERRADO,2017-08-22,2018-02-20,CERRADO,-12.736479999999972,-74.82304999999997
PNSR,258149,2302963,"MEJORAMIENTO Y AMPLIACION DEL SERVICIO DE AGUA POTABLE Y CREACIÓN DEL SERVICIO DE DISPOSICION SANITARIA DE EXCRETAS EN LA COMUNIDAD CAMPESINA VILLA SANTIAGO, DISTRITO DE POMATA, PROVINCIA DE CHUCUITO, DEPARTAMENTO DE PUNO",PROGRAMA NACIONAL DE SANEAMIENTO RURAL,PUNO,CHUCUITO,POMATA,210406,279,1744858.68,NÚCLEO EJECUTOR,OBRA,TRANSFERENCIA,2017-09-18,2018-06-06,ACTIVO,-16.27383999999995,-69.29377999999997
PNSR,268201,2189451,"MEJORAMIENTO Y AMPLIACIÓN DEL SERVICIO DE AGUA POTABLE Y DISPOSICIÓN SANITARIA DE EXCRETAS EN EL SECTOR ARBOLEDA DEL CENTRO POBLADO CHUA CHUA, DISTRITO DE ZEPITA - CHUCUITO - PUNO",PROGRAMA NACIONAL DE SANEAMIENTO RURAL,PUNO,CHUCUITO,ZEPITA,210407,276,2159478.79,NÚCLEO EJECUTOR,OBRA,TRANSFERENCIA,2017-08-21,2018-07-03,ACTIVO,-16.49566999999996,-69.10429999999997
PNSR,239558,2170957,"INSTALACION DEL SERVICIO DE AGUA POTABLE Y SANEAMIENTO BASICO DE LA LOCALIDAD DE HUSNUPATA, DISTRITO DE YAULI - HUANCAVELICA - HUANCAVELICA",PROGRAMA NACIONAL DE SANEAMIENTO RURAL,HUANCAVELICA,HUANCAVELICA,YAULI,90117,376,1765102.77,NÚCLEO EJECUTOR,OBRA,CONCLUIDO,2018-05-28,2018-11-17,ACTIVO,-12.736479999999972,-74.82304999999997
PNSR,253341,2189335,"MEJORAMIENTO Y AMPLIACIÓN DE LOS SERVICIOS DE AGUA POTABLE Y DISPOSICIÓN SANITARIA DE EXCRETAS DE LA COMUNIDAD CAMPESINA MARCA ESQUEÑA, CENTRO POBLADO MARCA ESQUEÑA,  DISTRITO DE ACORA, PROVINCIA DE PUNO, DEPARTAMENTO DE PUNO",PROGRAMA NACIONAL DE SANEAMIENTO RURAL,PUNO,PUNO,ACORA,210102,217,2432132.84,NÚCLEO EJECUTOR,OBRA,CERRADO,2016-04-01,2016-11-26,CERRADO,-15.973859999999945,-69.79544999999996
PNSR,251659,2172757,MEJORAMIENTO Y AMPLIACIÓN DEL SERVICIO DE AGUA POTABLE Y SANEAMIENTO EN LA COMUNIDAD DE SURIMANA  - DISTRITO TUPAC AMARU- PROVINCIA CANAS - REGIÓN CUSCO,PROGRAMA NACIONAL DE SANEAMIENTO RURAL,CUSCO,CANAS,TUPAC AMARU,80508,235,1498129.18,NÚCLEO EJECUTOR,OBRA,CERRADO,2016-05-16,2016-11-30,CERRADO,-14.133119999999963,-71.52112999999997
PNSR,252268,2186042,"MEJORAMIENTO Y AMPLIACIÓN DE LOS SERVICIOS DE AGUA POTABLE Y DISPOSICIÓN SANITARIA DE EXCRETAS  DE LA COMUNIDAD CAMPESINA DE MILLIRAYA (SECTORES HUERTA JUCHILAYA - QUELAYA - TICATA), DISTRITO DE HUANCANÉ, HUANCANÉ - PUNO",PROGRAMA NACIONAL DE SANEAMIENTO RURAL,PUNO,HUANCANE,HUANCANE,210601,480,1955245.71,NÚCLEO EJECUTOR,OBRA,TRANSFERENCIA,2016-04-04,2016-12-07,ACTIVO,-15.200409999999977,-69.76316999999995
PNSR,265635,2186344,MEJORAMIENTO Y AMPLIACION DEL SERVICIO DEL SISTEMA DE AGUA POTABLE  E INSTALACION DE UNIDADES BASICAS DE SANEAMIENTO ( UBS) EN LA LOCALIDAD DE MILLPO DISTRITO DE TAMBO PROVINCIA DE LA MAR DEPARTAMENTO DE AYACUCHO.,PROGRAMA NACIONAL DE SANEAMIENTO RURAL,AYACUCHO,LA MAR,TAMBO,50508,583,1914864.69,NÚCLEO EJECUTOR,OBRA,CERRADO,2016-01-02,2016-11-16,CERRADO,-12.947729999999979,-74.01897999999994
PNSR,245799,2183850,"MEJORAMIENTO Y AMPLIACION DEL SERVICIO DE AGUA POTABLE E INSTALACION DE UNIDADES BASICAS DE SANEAMIENTO (UBS) EN LA LOCALIDAD DE ROCCHAS, DISTRITO DE SAN MIGUEL, PROVINCIA DE LA MAR - AYACUCHO",PROGRAMA NACIONAL DE SANEAMIENTO RURAL,AYACUCHO,LA MAR,SAN MIGUEL,50501,371,2155722.62,NÚCLEO EJECUTOR,OBRA,CERRADO,2016-01-02,2016-10-20,CERRADO,-12.077999999999975,-77.09586999999993
PNSR,256070,2185048,"MEJORAMIENTO Y AMPLIACIÓN DEL SERVICIO DE AGUA POTABLE E INSTALACION DE UNIDADES BÁSICAS DE SANEAMIENTO (UBS) EN LA LOCALIDAD DE ILLAURA, DISTRITO DE SAN MIGUEL, PROVINCIA DE LA MAR - AYACUCHO.",PROGRAMA NACIONAL DE SANEAMIENTO RURAL,AYACUCHO,LA MAR,SAN MIGUEL,50501,299,1863085.59,NÚCLEO EJECUTOR,OBRA,CERRADO,2016-04-01,2016-11-12,CERRADO,-12.077999999999975,-77.09586999999993
PNSR,247310,2178833,"MEJORAMIENTO Y AMPLIACIÓN DEL SERVICIO DE AGUA POTABLE E INSTALACIÓN DE UNIDADES BÁSICAS DE SANEAMIENTO (UBS) EN LA LOCALIDAD DE AUQUIRACCAY, DISTRITO DE ANCO, PROVINCIA DE LA MAR - AYACUCHO",PROGRAMA NACIONAL DE SANEAMIENTO RURAL,AYACUCHO,LA MAR,ANCO,50502,306,1552328.86,NÚCLEO EJECUTOR,OBRA,CERRADO,2016-10-03,2017-07-14,CERRADO,-13.09463999999997,-73.71118999999999
PNSR,248198,2178835,"MEJORAMIENTO Y AMPLIACIÓN DEL SISTEMA DE AGUA POTABLE E INSTALACIÓN DE UNIDADES BÁSICAS DE SANEAMIENTO (UBS) EN LA LOCALIDAD DE AMARGURA, DISTRITO DE ANCO, PROVINCIA DE LA MAR - AYACUCHO",PROGRAMA NACIONAL DE SANEAMIENTO RURAL,AYACUCHO,LA MAR,ANCO,50502,200,1109844.91,NÚCLEO EJECUTOR,OBRA,CERRADO,2016-08-08,2017-03-04,CERRADO,-13.09463999999997,-73.71118999999999
PNSR,260765,2189455,"MEJORAMIENTO Y AMPLIACIÓN DEL SERVICIO DE AGUA POTABLE Y DISPOSICIÓN SANITARIA DE EXCRETAS EN LA COMUNIDAD CAMPESINA AMPATIRI, DISTRITO POMATA - CHUCUITO - PUNO",PROGRAMA NACIONAL DE SANEAMIENTO RURAL,PUNO,CHUCUITO,POMATA,210406,294,2098190.5,NÚCLEO EJECUTOR,OBRA,TRANSFERENCIA,2017-08-16,2018-06-30,ACTIVO,-16.27383999999995,-69.29377999999997
PNSR,246706,2178826,MEJORAMIENTO Y AMPLIACIÓN DEL SERVICIO DE AGUA POTABLE Y SANEAMIENTO EN EL ANEXO CHALLAPAMPA DE LA COMUNIDAD DE CHICNAYHUA  - DISTRITO YANAOCA- PROVINCIA CANAS - REGIÓN CUSCO,PROGRAMA NACIONAL DE SANEAMIENTO RURAL,CUSCO,CANAS,YANAOCA,80501,185,1290032.55,NÚCLEO EJECUTOR,OBRA,CERRADO,2016-05-09,2016-11-24,CERRADO,-14.217759999999942,-71.43077999999997
PNSR,251687,2172754,MEJORAMIENTO Y AMPLIACIÓN DEL SERVICIO DE AGUA POTABLE Y SANEAMIENTO EN EL ANEXO PUNA VAQUERIA DE LA COMUNIDAD DE HAMPATURA  - DISTRITO YANAOCA- PROVINCIA CANAS - REGIÓN CUSCO,PROGRAMA NACIONAL DE SANEAMIENTO RURAL,CUSCO,CANAS,YANAOCA,80501,220,1615613.98,NÚCLEO EJECUTOR,OBRA,CERRADO,2016-09-28,2017-05-17,CERRADO,-14.217759999999942,-71.43077999999997
PNSR,251461,2189501,"INSTALACION DE SERVICIOS DE AGUA POTABLE Y DISPOSICIÓN SANITARIA DE EXCRETAS EN LA PARCIALIDAD JAHUERJA SAN PEDRO, DISTRITO DE KELLUYO - CHUCUITO - PUNO",PROGRAMA NACIONAL DE SANEAMIENTO RURAL,PUNO,CHUCUITO,KELLUYO,210404,217,1460594.58,NÚCLEO EJECUTOR,OBRA,POST EJECUCIÓN,2017-08-21,2018-08-11,ACTIVO,-16.58325999999994,-69.30713999999995
PNSR,258186,2302959,"MEJORAMIENTO Y AMPLIACIÓN DEL SERVICIO DE AGUA POTABLE Y DISPOSICIÓN SANITARIA DE EXCRETAS EN EL CENTRO POBLADO ISANI (SECTOR TUCAHUI), DISTRITO DE ZEPITA, PROVINCIA DE CHUCUITO, DEPARTAMENTO DE PUNO",PROGRAMA NACIONAL DE SANEAMIENTO RURAL,PUNO,CHUCUITO,ZEPITA,210407,212,1849905.49,NÚCLEO EJECUTOR,OBRA,TRANSFERENCIA,2017-08-03,2018-05-02,ACTIVO,-16.49566999999996,-69.10429999999997
PNSR,240906,2170999,INSTALACION DEL SERVICIO DE AGUA POTABLE Y SANEAMIENTO BASICO DE LA LOCALIDAD LLUMCHIPAMPA DISTRITO YAULI – PROVINCIA HUANCAVELICA–REGIÓN HUANCAVELICA,PROGRAMA NACIONAL DE SANEAMIENTO RURAL,HUANCAVELICA,HUANCAVELICA,YAULI,90117,206,1451696.82,NÚCLEO EJECUTOR,OBRA,CONCLUIDO,2017-08-03,2017-12-27,ACTIVO,-12.736479999999972,-74.82304999999997
PNSR,339549,2310855,"MEJORAMIENTO Y AMPLIACION DEL SERVICIO DE AGUA POTABLE Y CREACION DEL SERVICIO DE DISPOSICION SANITARIA DE EXCRETAS EN EL SECTOR SAJSANI DE LA COMUNIDAD CAMPESINA CHATUMA, DISTRITO DE POMATA, PROVINCIA DE CHUCUITO, DEPARTAMENTO DE PUNO",PROGRAMA NACIONAL DE SANEAMIENTO RURAL,PUNO,CHUCUITO,POMATA,210406,291,1995121.93,NÚCLEO EJECUTOR,OBRA,CONCLUIDO,2017-11-27,2018-12-31,ACTIVO,-16.27383999999995,-69.29377999999997
PNSR,242490,2170962,"INSTALACION DEL SERVICIO DE AGUA POTABLE Y SANEAMIENTO BASICO DE LA LOCALIDAD DE LIMAPAMPA , DISTRITO DE YAULI - HUANCAVELICA - HUANCAVELICA",PROGRAMA NACIONAL DE SANEAMIENTO RURAL,HUANCAVELICA,HUANCAVELICA,YAULI,90117,319,1754063.68,NÚCLEO EJECUTOR,OBRA,CONCLUIDO,2017-08-01,2018-04-14,ACTIVO,-12.736479999999972,-74.82304999999997
PNSR,339133,2310844,"MEJORAMIENTO Y AMPLIACIÓN DEL SERVICIO DE AGUA POTABLE Y DISPOSICIÓN SANITARIA DE EXCRETAS EN LA COMUNIDAD CAMPESINA MOLINO CHOCO PAMPA, DISTRITO DE ZEPITA, PROVINCIA DE CHUCUITO, DEPARTAMENTO DE PUNO",PROGRAMA NACIONAL DE SANEAMIENTO RURAL,PUNO,CHUCUITO,ZEPITA,210407,224,2017665.55,NÚCLEO EJECUTOR,OBRA,TRANSFERENCIA,2017-12-04,2018-07-10,ACTIVO,-16.49566999999996,-69.10429999999997
PNSR,258139,2189347,"MEJORAMIENTO Y AMPLIACIÓN DE LOS SERVICIOS DE AGUA POTABLE Y DISPOSICIÓN SANITARIA DE EXCRETAS EN EL SECTOR CHOQUE DEL CENTRO POBLADO SICUYANI, DISTRITO ZEPITA - CHUCUITO - PUNO",PROGRAMA NACIONAL DE SANEAMIENTO RURAL,PUNO,CHUCUITO,ZEPITA,210407,254,1993151.02,NÚCLEO EJECUTOR,OBRA,TRANSFERENCIA,2016-10-12,2017-10-31,ACTIVO,-16.49566999999996,-69.10429999999997
PNSR,249796,2189513,"MEJORAMIENTO Y AMPLIACION DEL SERVICIO DE AGUA POTABLE Y DISPOSCIÓN SANITARIA DE EXCRETAS EN LA PARCIALIDAD SILLICACHI, DISTRITO DE HUACULLANI - CHUCUITO - PUNO",PROGRAMA NACIONAL DE SANEAMIENTO RURAL,PUNO,CHUCUITO,HUACULLANI,210403,211,2194830.74,NÚCLEO EJECUTOR,OBRA,TRANSFERENCIA,2016-10-10,2017-10-14,ACTIVO,-16.592769999999973,-69.41174999999998
PNSR,257151,2187532,"MEJORAMIENTO Y AMPLIACIÓN DE LOS SERVICIOS DE AGUA POTABLE Y DISPOSICIÓN SANITARIA DE EXCRETAS DE LA COMUNIDAD CAMPESINA DE MUÑAPATA Y PARCIALIDAD DE KATAHUI - CHINQUILLAYA, DISTRITO DE HUANCANE, HUANCANE - PUNO",PROGRAMA NACIONAL DE SANEAMIENTO RURAL,PUNO,HUANCANE,HUANCANE,210601,244,2102242.67,NÚCLEO EJECUTOR,OBRA,TRANSFERENCIA,2016-11-21,2017-10-27,ACTIVO,-15.200409999999977,-69.76316999999995
PNSR,249896,2183854,"INSTALACION DEL SERVICIO DE AGUA POTABLE Y DISPOSICIÓN SANITARIA DE EXCRETAS EN EL SECTOR MAYCHU PHUJO CENTRAL DE LA COMUNIDAD CAMPESINA MAYCHU PHUJO, DISTRITO DE KELLUYO-CHUCUITO-PUNO",PROGRAMA NACIONAL DE SANEAMIENTO RURAL,PUNO,CHUCUITO,KELLUYO,210404,255,2015767.89,NÚCLEO EJECUTOR,OBRA,CONCLUIDO,2017-09-18,2019-04-20,ACTIVO,-16.58325999999994,-69.30713999999995
PNSR,249887,2189500,"INSTALACION DE SERVICIOS DE AGUA POTABLE Y DISPOSICIÓN SANITARIA DE EXCRETAS EN LA COMUNIDAD CAMPESINA PERCA, DISTRITO DE KELLUYO - CHUCUITO - PUNO",PROGRAMA NACIONAL DE SANEAMIENTO RURAL,PUNO,CHUCUITO,KELLUYO,210404,207,1912445.62,NÚCLEO EJECUTOR,OBRA,TRANSFERENCIA,2017-07-20,2018-05-30,ACTIVO,-16.58325999999994,-69.30713999999995
PNSR,339593,2310856,"MEJORAMIENTO Y AMPLIACION DEL SERVICIO DE AGUA POTABLE Y CREACIÓN DEL SERVICIO DE DISPOSICION SANITARIA DE EXCRETAS EN EL SECTOR TUPO DE LA COMUNIDAD CAMPESINA JAQUEHUAYTAHUI, DISTRITO DE POMATA, PROVINCIA DE CHUCUITO, DEPARTAMENTO PUNO",PROGRAMA NACIONAL DE SANEAMIENTO RURAL,PUNO,CHUCUITO,POMATA,210406,202,1844380.65,NÚCLEO EJECUTOR,OBRA,CONCLUIDO,2017-08-02,2018-08-23,ACTIVO,-16.27383999999995,-69.29377999999997
PNSR,339160,2310845,"MEJORAMIENTO Y AMPLIACIÓN DEL SERVICIO DE AGUA POTABLE Y CREACIÓN DEL SERVICIO DE DISPOSICIÓN SANITARIA DE EXCRETAS EN EL CENTRO POBLADO ISANI (SECTORES CAÑAHUAPJURO Y SAMIRI), DISTRITO DE ZEPITA, PROVINCIA DE CHUCUITO, DEPARTAMENTO DE PUNO",PROGRAMA NACIONAL DE SANEAMIENTO RURAL,PUNO,CHUCUITO,ZEPITA,210407,212,1984907.96,NÚCLEO EJECUTOR,OBRA,TRANSFERENCIA,2017-08-01,2018-04-30,ACTIVO,-16.49566999999996,-69.10429999999997
PNSR,2435692,2435692,MEJORAMIENTO Y AMPLIACION DEL SERVICIO DE AGUA POTABLE Y DISPOSICIÓN SANITARIA DE EXCRETAS EN LA COMUNIDAD CAMPESINA DE CRUZ PAMPA DEL DISTRITO DE CAPACMARCA - PROVINCIA DE CHUMBIVILCAS - DEPARTAMENTO DE CUSCO,PROGRAMA NACIONAL DE SANEAMIENTO RURAL,CUSCO,CHUMBIVILCAS,CAPACMARCA,80702,196,2160690.03,NÚCLEO EJECUTOR,OBRA,TRANSFERENCIA,2019-08-12,2021-01-20,ACTIVO,-14.00834999999995,-71.99953999999997
PNSR,262559,2185027,"MEJORAMIENTO Y AMPLIACION DEL SERVICIO DE AGUA POTABLE E INSTALACION DE UNIDADES BASICAS DE SANEAMIENTO (UBS EN LA LOCALIDAD CCOYAMA DISTRITO DE CHILCAS, PROVINCIA LA MAR -AYACUCHO.",PROGRAMA NACIONAL DE SANEAMIENTO RURAL,AYACUCHO,LA MAR,CHILCAS,50504,256,1496153.66,NÚCLEO EJECUTOR,OBRA,CERRADO,2016-08-16,2017-05-26,CERRADO,-13.194969999999955,-73.87234999999998
PNSR,239150,2171003,"INSTALACION DEL SERVICIO DE AGUA POTABLE Y SANEAMIENTO BASICO DEL BARRIO CCOLLPACUCHO DEL CENTRO POBLADO CCASAPATA , DISTRITO DE YAULI - HUANCAVELICA - HUANCAVELICA",PROGRAMA NACIONAL DE SANEAMIENTO RURAL,HUANCAVELICA,ACOBAMBA,PAUCARA,90117,262,1378215.99,NÚCLEO EJECUTOR,OBRA,CERRADO,2016-04-25,2017-03-21,CERRADO,-12.728329999999971,-74.66644999999994
PNSR,245815,2176568,"MEJORAMIENTO Y AMPLIACION DEL SERVICIO DE AGUA POTABLE E INSTALACIÓN DE UNIDADES BASICAS DE SANEAMIENTO (UBS) EN LA LOCALIDAD DE MAGNUPAMPA, DISTRITO DE SAN MIGUEL, PROVINCIA DE LA MAR - AYACUCHO",PROGRAMA NACIONAL DE SANEAMIENTO RURAL,AYACUCHO,LA MAR,SAN MIGUEL,50501,263,1268921.2,NÚCLEO EJECUTOR,OBRA,CERRADO,2016-07-01,2016-12-29,CERRADO,-12.077999999999975,-77.09586999999993
PNSR,246460,2172692,"MEJORAMIENTO Y AMPLIACION  DEL SISTEMA DE AGUA POTABLE E INSTALACION  DE UNIDADES BASICAS DE SANEAMIENTO (UBS) EN LA LOCALIDAD  DE POLANCO, DISTRITO DE TAMBO, PROVINCIA DE LA MAR - AYACUCHO",PROGRAMA NACIONAL DE SANEAMIENTO RURAL,AYACUCHO,LA MAR,TAMBO,50508,194,978312.51,NÚCLEO EJECUTOR,OBRA,CERRADO,2016-06-01,2016-12-06,CERRADO,-12.947729999999979,-74.01897999999994
PNSR,247306,2178842,"MEJORAMIENTO Y AMPLIACION DEL SERVICIO DE AGUA POTABLE E INSTALACION DE UNIDADES BASICAS  DE SANEAMIENTO (UBS) EN LA LOCALIDAD DE UNION MINAS, DISTRITO DE TAMBO, PROVINCIA DE LA MAR - AYACUCHO",PROGRAMA NACIONAL DE SANEAMIENTO RURAL,AYACUCHO,LA MAR,TAMBO,50508,187,1115349.17,NÚCLEO EJECUTOR,OBRA,CERRADO,2016-11-14,2017-05-15,CERRADO,-12.947729999999979,-74.01897999999994
PNSR,249821,2183853,"INSTALACION DEL SERVICIO DE AGUA POTABLE Y DISPOSICIÓN SANITARIA DE EXCRETAS DE LOS SECTORES CENTRAL 1 Y CENTRAL 2 DE LA COMUNIDAD CAMPESINA TUQUINA , DISTRITO  POMATA - CHUCUITO  - PUNO",PROGRAMA NACIONAL DE SANEAMIENTO RURAL,PUNO,CHUCUITO,POMATA,210406,224,1989509.39,NÚCLEO EJECUTOR,OBRA,TRANSFERENCIA,2016-10-03,2017-10-03,ACTIVO,-16.27383999999995,-69.29377999999997
PNSR,249884,2189480,"MEJORAMIENTO Y AMPLIACIÓN DEL SERVICIO DE AGUA POTABLE Y DISPOSICIÓN SANITARIA DE EXCRETAS EN EL SECTOR HUISA VILCANQUI DE LA COMUNIDAD CAMPESINA DE SAN JUAN DE ARACACHI, DISTRITO KELLUYO - CHUCUITO - PUNO",PROGRAMA NACIONAL DE SANEAMIENTO RURAL,PUNO,CHUCUITO,KELLUYO,210404,294,2457102.46,NÚCLEO EJECUTOR,OBRA,TRANSFERENCIA,2016-10-03,2017-11-21,ACTIVO,-16.58325999999994,-69.30713999999995
PNSR,241440,2172671,MEJORAMIENTO E INSTALACION DEL SERVICIO DE AGUA POTABLE Y SANEAMIENTO BASICO DE LA LOCALIDAD DE JATUMPAMPA – DISTRITO DANIEL HERNÁNDEZ – PROVINCIA TAYACAJA – REGIÓN HUANCAVELICA,PROGRAMA NACIONAL DE SANEAMIENTO RURAL,HUANCAVELICA,TAYACAJA,DANIEL HERNANDEZ,90706,204,1201202.82,NÚCLEO EJECUTOR,OBRA,CERRADO,2017-07-11,2018-02-10,CERRADO,-12.390929999999969,-74.86061999999998
PNSR,240710,2170979,INSTALACION DEL SERVICIO DE AGUA POTABLE Y SANEAMIENTO BASICO DE LA LOCALIDAD DE PUCACCASA CHOPCCA – DISTRITO YAULI – PROVINCIA HUANCAVELICA – REGIÓN HUANCAVELICA,PROGRAMA NACIONAL DE SANEAMIENTO RURAL,HUANCAVELICA,HUANCAVELICA,YAULI,90117,222,1287088.97,NÚCLEO EJECUTOR,OBRA,CERRADO,2017-08-07,2017-12-27,CERRADO,-12.736479999999972,-74.82304999999997
PNSR,258239,2302965,"CREACION DEL SERVICIO DE AGUA POTABLE Y DISPOSICION SANITARIA DE EXCRETAS EN LA PARCIALIDAD DE CHUNCARCOLLO, DISTRITO DE KELLUYO, PROVINCIA DE CHUCUITO, DEPARTAMENTO DE PUNO",PROGRAMA NACIONAL DE SANEAMIENTO RURAL,PUNO,CHUCUITO,KELLUYO,210404,205,2246569.45,NÚCLEO EJECUTOR,OBRA,CONCLUIDO,2017-12-04,2019-03-28,ACTIVO,-16.58325999999994,-69.30713999999995
PNSR,166945,2172775,"MEJORAMIENTO Y AMPLIACION DEL SISTEMA DE AGUA POTABLE Y SANEAMIENTO BASICO DE LA LOCALIDAD DE COLMATA, DISTRITO DE LUYA, PROVINCIA DE LUYA, DEPARTAMENTO AMAZONAS",PROGRAMA NACIONAL DE SANEAMIENTO RURAL,AMAZONAS,LUYA,LUYA,10509,223,1284133.56,NÚCLEO EJECUTOR,OBRA,POST EJECUCIÓN,2016-11-02,2017-10-10,DESACTIVADO PERMANENTE,-6.322694850999937,-78.07791882899994
PNSR,231610,2170998,"INSTALACION DEL SERVICIO DE AGUA POTABLE Y SANEAMIENTO BASICO DE LA LOCALIDAD DE YERBABUENA, DISTRITO YANAMA, PROVINCIA YUNGAY, REGION ANCASH",PROGRAMA NACIONAL DE SANEAMIENTO RURAL,ANCASH,YUNGAY,YANAMA,22008,257,1145583.72,NÚCLEO EJECUTOR,OBRA,TRANSFERENCIA,2015-08-01,2016-02-13,DESACTIVADO PERMANENTE,-8.985089999999957,-77.36939999999998
